station_name,lat,lon,county,region,location_id,station_id
1126+95,46.8449936,17.4734781,Veszprém,Közép-Dunántúl,3,1
298,47.4516589,19.5273854,Pest,Pest,7,2
299,47.4517475,19.528725,Pest,Pest,7,3
468,47.4097209,19.7375095,Heves,Észak-Magyarország,0,4
519,47.2868277,20.0661268,Jász-Nagykun-Szolnok,Észak-Alföld,1,5
520,47.2859512,20.0666262,Jász-Nagykun-Szolnok,Észak-Alföld,1,6
A,47.533153,19.0672977,Budapest,Budapest,6,7
AB Heiligenkreuz,46.9617723,16.274621,Vas,Nyugat-Dunántúl,4,8
AS118,48.1793621,21.3588583,Borsod-Abaúj-Zemplén,Észak-Magyarország,0,9
AS126,48.1840703,21.3645915,Borsod-Abaúj-Zemplén,Észak-Magyarország,0,10
AS132,48.1885166,21.3699081,Borsod-Abaúj-Zemplén,Észak-Magyarország,0,11
AS136,48.1912404,21.3732801,Borsod-Abaúj-Zemplén,Észak-Magyarország,0,12
AS141,48.1945182,21.377219,Borsod-Abaúj-Zemplén,Észak-Magyarország,0,13
AS144,48.1964676,21.3798441,Borsod-Abaúj-Zemplén,Észak-Magyarország,0,14
AS151,48.2011708,21.3869322,Borsod-Abaúj-Zemplén,Észak-Magyarország,0,15
AS173,48.2181178,21.4020615,Borsod-Abaúj-Zemplén,Észak-Magyarország,0,16
AS187,48.2285195,21.4117716,Borsod-Abaúj-Zemplén,Észak-Magyarország,0,17
AS199,48.2390005,21.4185861,Borsod-Abaúj-Zemplén,Észak-Magyarország,0,18
AS210,48.2464638,21.4260327,Borsod-Abaúj-Zemplén,Észak-Magyarország,0,19
AS215,48.2483877,21.4332709,Borsod-Abaúj-Zemplén,Észak-Magyarország,0,20
AS246,48.2601967,21.4642295,Borsod-Abaúj-Zemplén,Észak-Magyarország,0,21
AS259,48.2638486,21.4780809,Borsod-Abaúj-Zemplén,Észak-Magyarország,0,22
AS265,48.2674211,21.4845205,Borsod-Abaúj-Zemplén,Észak-Magyarország,0,23
AS284,48.2786177,21.5046398,Szabolcs-Szatmár-Bereg,Észak-Alföld,1,24
AS29,48.0965179,20.8925796,Borsod-Abaúj-Zemplén,Észak-Magyarország,0,25
AS293,48.2845108,21.5116436,Szabolcs-Szatmár-Bereg,Észak-Alföld,1,26
AS348,48.3196196,21.5574597,Szabolcs-Szatmár-Bereg,Észak-Alföld,1,27
AS922,46.8236683,17.6166352,Veszprém,Közép-Dunántúl,3,28
Aba-Sárkeresztúr,47.023785,18.5425663,Fejér,Közép-Dunántúl,3,29
Abaliget,46.152688,18.0753148,Baranya,Dél-Dunántúl,5,30
Abaújkér,48.3088046,21.1980659,Borsod-Abaúj-Zemplén,Észak-Magyarország,0,31
Abaújszántó,48.2864991,21.181208,Borsod-Abaúj-Zemplén,Észak-Magyarország,0,32
Abaújszántói fürdő,48.268671,21.1794975,Borsod-Abaúj-Zemplén,Észak-Magyarország,0,33
Abda,47.6906417,17.5406211,Komárom-Esztergom,Közép-Dunántúl,3,34
Abony,47.1730116,20.0160475,Jász-Nagykun-Szolnok,Észak-Alföld,1,35
Abony elágazás,47.1798347,19.8315141,Jász-Nagykun-Szolnok,Észak-Alföld,1,36
Abonyi út,47.2066028,20.1250245,Jász-Nagykun-Szolnok,Észak-Alföld,1,37
Abádszalók,47.4551561,20.5533388,Heves,Észak-Magyarország,0,38
Acsa-Erdőkürt,47.8009698,19.386116,Nógrád,Észak-Magyarország,0,39
Acsád,47.3082805,16.7346998,Győr-Moson-Sopron,Nyugat-Dunántúl,4,40
Adonis utca,47.5033564,18.9900534,Budapest,Budapest,6,41
Adony,47.1061519,18.8478205,Fejér,Közép-Dunántúl,3,42
Adony-Dunapart,47.1114892,18.8809516,Fejér,Közép-Dunántúl,3,43
Adács,47.6965615,19.975556,Heves,Észak-Magyarország,0,44
Agárd,47.1977351,18.6049158,Fejér,Közép-Dunántúl,3,45
Agárdytelep,46.8193004,19.38545,Bács-Kiskun,Dél-Alföld,2,46
Ajak,48.1867018,22.0489842,Szabolcs-Szatmár-Bereg,Észak-Alföld,1,47
Ajka,47.1059403,17.5728618,Veszprém,Közép-Dunántúl,3,48
Ajka-Gyártelep,47.0967711,17.5551869,Veszprém,Közép-Dunántúl,3,49
Ajtósi Dürer sor,47.5135342,19.0961055,Budapest,Budapest,6,50
Akadémia,47.5192962,18.9941126,Budapest,Budapest,6,51
Akadémiaújtelep,47.4857781,19.2227561,Budapest,Budapest,6,52
Akácfa utca,47.4259521,19.1141477,Budapest,Budapest,6,53
Alagimajor,47.6019405,19.1541844,Budapest,Budapest,6,54
Alap,46.8320028,18.6575254,Bács-Kiskun,Dél-Alföld,2,55
Albert Flórián út,47.4725099,19.0956319,Budapest,Budapest,6,56
Albertfalva,47.4397591,19.034553,Budapest,Budapest,6,57
Albertfalva kitérő,47.4526966,19.0387307,Budapest,Budapest,6,58
Albertfalva utca,47.4479575,19.0375304,Budapest,Budapest,6,59
Albertirsa,47.2400897,19.6066242,Pest,Pest,7,60
Alcsútdoboz Arborétum,47.4239172,18.5834951,Komárom-Esztergom,Közép-Dunántúl,3,61
Aldebrő,47.7842585,20.2242571,Heves,Észak-Magyarország,0,62
Algyő,46.3367367,20.1969677,Bács-Kiskun,Dél-Alföld,2,63
Almamellék,46.1676783,17.8892697,Baranya,Dél-Dunántúl,5,64
Almár,47.95619,20.3569681,Borsod-Abaúj-Zemplén,Észak-Magyarország,0,65
Almás,46.1162156,19.3288165,Bács-Kiskun,Dél-Alföld,2,66
Almásfüzitő,47.7251715,18.2619507,Komárom-Esztergom,Közép-Dunántúl,3,67
Almásfüzitő felső,47.7316964,18.2137719,Komárom-Esztergom,Közép-Dunántúl,3,68
Almásfüzitő-KEG kiágazás,47.7246701,18.2893037,Komárom-Esztergom,Közép-Dunántúl,3,69
Almásfüzítő forgalmi iroda,47.7255189,18.2617843,Komárom-Esztergom,Közép-Dunántúl,3,70
Alsó-Majláth,48.1056794,20.6812789,Borsod-Abaúj-Zemplén,Észak-Magyarország,0,71
Alsóboldva,48.2125651,20.7921203,Borsod-Abaúj-Zemplén,Észak-Magyarország,0,72
Alsóbélatelep,46.7241454,17.5163159,Veszprém,Közép-Dunántúl,3,73
Alsógalla,47.5633493,18.4245723,Komárom-Esztergom,Közép-Dunántúl,3,74
Alsógyenes,46.7658516,17.2763741,Veszprém,Közép-Dunántúl,3,75
Alsógöd,47.6758133,19.1342387,Pest,Pest,7,76
Alsóhegy utca,47.4829329,19.0300796,Budapest,Budapest,6,77
Alsóméntelek,46.9616449,19.5789774,Bács-Kiskun,Dél-Alföld,2,78
Alsónemesapáti,46.8540081,16.9365484,Vas,Nyugat-Dunántúl,4,79
Alsónyék,46.1993602,18.7380584,Bács-Kiskun,Dél-Alföld,2,80
Alsórönök,46.9642392,16.3781106,Vas,Nyugat-Dunántúl,4,81
Alsóörs,46.9850792,17.9753834,Veszprém,Közép-Dunántúl,3,82
Alsóúrrét,46.8983776,19.779945,Bács-Kiskun,Dél-Alföld,2,83
Ambrózfalva,46.3530335,20.7406009,Békés,Dél-Alföld,2,84
Andaházi utca,47.5453764,21.6263414,Hajdú-Bihar,Észak-Alföld,1,85
Andocs,46.6474005,17.8923913,Veszprém,Közép-Dunántúl,3,86
Andor utca,47.4557256,19.0398227,Budapest,Budapest,6,87
Andornaktálya,47.8524243,20.4021501,Borsod-Abaúj-Zemplén,Észak-Magyarország,0,88
Andráshida,46.8630479,16.7793677,Vas,Nyugat-Dunántúl,4,89
Andráshida elágazás,46.8530171,16.8305216,Vas,Nyugat-Dunántúl,4,90
Andókút,48.1387654,20.6005138,Borsod-Abaúj-Zemplén,Észak-Magyarország,0,91
Angyalföld,47.5501767,19.0894367,Budapest,Budapest,6,92
Angyalföld elágazás,47.5380545,19.1096912,Budapest,Budapest,6,93
Angyalföld kocsiszín,47.5529434,19.0918161,Budapest,Budapest,6,94
Angyalföld vasútállomás,47.5499597,19.0910142,Budapest,Budapest,6,95
Angyalisziget,47.1989004,18.944491,Fejér,Közép-Dunántúl,3,96
Anna-kút (Kossuth Lajos sugárút),46.2562989,20.1473722,Bács-Kiskun,Dél-Alföld,2,97
Anna-kút (Tisza Lajos körút),46.2560916,20.1489194,Bács-Kiskun,Dél-Alföld,2,98
Apafa,47.5840837,21.6558721,Hajdú-Bihar,Észak-Alföld,1,99
Apagy,47.9537975,21.9390317,Szabolcs-Szatmár-Bereg,Észak-Alföld,1,100
Apc-Zagyvaszántó,47.7913326,19.6681732,Nógrád,Észak-Magyarország,0,101
Apor Vilmos tér,47.4905113,19.014857,Budapest,Budapest,6,102
Apostag,46.8851342,18.9775771,Bács-Kiskun,Dél-Alföld,2,103
Apátfalva,46.1751847,20.5806361,Békés,Dél-Alföld,2,104
Aquaticum,47.5521343,21.6304874,Hajdú-Bihar,Észak-Alföld,1,105
Aquincum,47.5663001,19.0473576,Budapest,Budapest,6,106
Aquincum elágazás,47.5606695,19.0468877,Budapest,Budapest,6,107
Aradi vértanúk tere,46.2477236,20.1469218,Bács-Kiskun,Dél-Alföld,2,108
Aradványpuszta,47.662792,21.842689,Hajdú-Bihar,Észak-Alföld,1,109
Arany János utca,47.5035189,19.0544399,Budapest,Budapest,6,110
Aranyosapáti,48.2113043,22.253534,Szabolcs-Szatmár-Bereg,Észak-Alföld,1,111
Aranyvölgy,47.573722,19.0177893,Budapest,Budapest,6,112
Arborétum,47.5697431,19.3771512,Pest,Pest,7,113
Asdag kavicsbánya iparvágány,47.8082108,17.1389858,Győr-Moson-Sopron,Nyugat-Dunántúl,4,114
Asdag kavicsbánya iparvágány kiágazás,47.8039458,17.1379297,Győr-Moson-Sopron,Nyugat-Dunántúl,4,115
Astoria,47.4947043,19.0611312,Budapest,Budapest,6,116
Astoria M,47.4946013,19.0597653,Budapest,Budapest,6,117
Aszaló,48.2201681,20.9617328,Borsod-Abaúj-Zemplén,Észak-Magyarország,0,118
Asztalos Sándor út,47.4900656,19.1055979,Budapest,Budapest,6,119
Aszód,47.6474801,19.4928932,Pest,Pest,7,120
Aszófő,46.925557,17.8331286,Veszprém,Közép-Dunántúl,3,121
Atlétikai stadion,47.5725246,19.1143749,Budapest,Budapest,6,122
Attala,46.3686289,18.0675323,Baranya,Dél-Dunántúl,5,123
Autópálya (ideiglenes végállomás),46.1408615,18.6306039,Bács-Kiskun,Dél-Alföld,2,124
BAH-csomópont,47.4871779,19.0246599,Budapest,Budapest,6,125
BJ,48.1706515,21.3482118,Borsod-Abaúj-Zemplén,Észak-Magyarország,0,126
Babatpuszta forgalmi kitérő,47.6192373,19.4111669,Pest,Pest,7,127
Babócsa,46.0283625,17.3422799,Zala,Nyugat-Dunántúl,4,128
Babócsa forgalmi iroda,46.0285113,17.3423725,Zala,Nyugat-Dunántúl,4,129
Badacsony,46.7885534,17.5065733,Veszprém,Közép-Dunántúl,3,130
Badacsonylábdihegy,46.7906034,17.4742179,Veszprém,Közép-Dunántúl,3,131
Badacsonytomaj,46.8046301,17.5182176,Veszprém,Közép-Dunántúl,3,132
Badacsonytördemic-Szigliget,46.8097994,17.4691454,Veszprém,Közép-Dunántúl,3,133
Badacsonyörs,46.8063578,17.5299245,Veszprém,Közép-Dunántúl,3,134
Bag,47.6400643,19.4705602,Pest,Pest,7,135
Bagimajor,47.0602602,20.3155047,Jász-Nagykun-Szolnok,Észak-Alföld,1,136
Bagod,46.874928,16.7460922,Vas,Nyugat-Dunántúl,4,137
Baja,46.1869807,18.9574905,Bács-Kiskun,Dél-Alföld,2,138
Baja-Dunafürdő,46.1931282,18.9212965,Bács-Kiskun,Dél-Alföld,2,139
Baja-Dunapart,46.1840113,18.9276207,Bács-Kiskun,Dél-Alföld,2,140
Baja-Dunaparti elágazás,46.1928671,18.9389294,Bács-Kiskun,Dél-Alföld,2,141
Bajcsa forgalmi kitérő,46.3913475,16.9432735,Zala,Nyugat-Dunántúl,4,142
Bajcsy-Zsilinszky Kórház,47.4798484,19.1626082,Budapest,Budapest,6,143
Bajcsy-Zsilinszky út,47.4998353,19.0552234,Budapest,Budapest,6,144
Bajza utca,47.5113209,19.072409,Budapest,Budapest,6,145
Bajza utca - M1 metró,47.5113351,19.0726191,Budapest,Budapest,6,146
Bajánsenye,46.8181034,16.3580581,Vas,Nyugat-Dunántúl,4,147
Bak,46.7319788,16.8489803,Vas,Nyugat-Dunántúl,4,148
Bakonybánk,47.471536,17.9138826,Komárom-Esztergom,Közép-Dunántúl,3,149
Bakonygyirót,47.4160443,17.8117243,Komárom-Esztergom,Közép-Dunántúl,3,150
Bakonypéterd,47.4742258,17.8046282,Komárom-Esztergom,Közép-Dunántúl,3,151
Bakonyszentlászló,47.396001,17.8176032,Komárom-Esztergom,Közép-Dunántúl,3,152
Bakonyszentlászló-Bauxitbánya,47.3903976,17.8150986,Komárom-Esztergom,Közép-Dunántúl,3,153
Bakonyszentlászló-Erdőgazdaság kiágazás,47.3635609,17.8195243,Komárom-Esztergom,Közép-Dunántúl,3,154
Bakonyszombathely,47.4797759,17.9503603,Komárom-Esztergom,Közép-Dunántúl,3,155
Bakonysárkány,47.4438687,18.1032244,Komárom-Esztergom,Közép-Dunántúl,3,156
Bakonytamási,47.4143016,17.7234431,Komárom-Esztergom,Közép-Dunántúl,3,157
Baktalórántháza,47.9885406,22.0834076,Szabolcs-Szatmár-Bereg,Észak-Alföld,1,158
Baktó elágazás,46.2982261,20.157548,Bács-Kiskun,Dél-Alföld,2,159
Baktüttös,46.6907266,16.8245277,Zala,Nyugat-Dunántúl,4,160
Balassagyarmat,48.0710928,19.293388,Nógrád,Észak-Magyarország,0,161
Balassagyarmat forgalmi iroda,48.0714212,19.293647,Nógrád,Észak-Magyarország,0,162
Balatonakali-Dörgicse,46.8797212,17.7478744,Veszprém,Közép-Dunántúl,3,163
Balatonakarattya,47.0173089,18.167721,Fejér,Közép-Dunántúl,3,164
Balatonaliga,46.9844158,18.1708754,Fejér,Közép-Dunántúl,3,165
Balatonalmádi,47.0282866,18.0150774,Fejér,Közép-Dunántúl,3,166
Balatonarács,46.9625338,17.8977035,Veszprém,Közép-Dunántúl,3,167
Balatonberény,46.7137023,17.3168926,Veszprém,Közép-Dunántúl,3,168
Balatonboglár,46.7760797,17.6471745,Veszprém,Közép-Dunántúl,3,169
Balatonederics,46.8026502,17.3851483,Veszprém,Közép-Dunántúl,3,170
Balatonfenyves,46.7134339,17.4827951,Veszprém,Közép-Dunántúl,3,171
Balatonfenyves GV,46.7125081,17.4792994,Veszprém,Közép-Dunántúl,3,172
Balatonfenyves alsó,46.7081968,17.4537652,Veszprém,Közép-Dunántúl,3,173
Balatonföldvár,46.8534021,17.8799758,Veszprém,Közép-Dunántúl,3,174
Balatonfüred,46.956305,17.8829694,Veszprém,Közép-Dunántúl,3,175
Balatonfüred-Hajógyár,46.9384145,17.8555239,Veszprém,Közép-Dunántúl,3,176
Balatonfőkajár,47.0135432,18.2034928,Fejér,Közép-Dunántúl,3,177
Balatonfőkajár felső,47.0310963,18.2144557,Fejér,Közép-Dunántúl,3,178
Balatonfűzfő,47.0597328,18.0426031,Fejér,Közép-Dunántúl,3,179
Balatongyörök,46.7518769,17.354192,Veszprém,Közép-Dunántúl,3,180
Balatoni út,47.444433600000004,19.0057241,Budapest,Budapest,6,181
Balatonkenese,47.0324031,18.1059692,Fejér,Közép-Dunántúl,3,182
Balatonkeresztúr,46.7038643,17.3685291,Veszprém,Közép-Dunántúl,3,183
Balatonlelle,46.7874032,17.694259,Veszprém,Közép-Dunántúl,3,184
Balatonlelle felső,46.7948759,17.7205812,Veszprém,Közép-Dunántúl,3,185
Balatonmáriafürdő,46.704093,17.3764838,Veszprém,Közép-Dunántúl,3,186
Balatonmáriafürdő elágazás,46.7080066,17.3575148,Veszprém,Közép-Dunántúl,3,187
Balatonrendes,46.8252135,17.5835455,Veszprém,Közép-Dunántúl,3,188
Balatonszemes,46.8121836,17.7770742,Veszprém,Közép-Dunántúl,3,189
Balatonszemes elágazás,46.8016899,17.7445695,Veszprém,Közép-Dunántúl,3,190
Balatonszentgyörgy,46.6924957,17.288887,Veszprém,Közép-Dunántúl,3,191
Balatonszentgyörgy HM iparvágány kiágazás,46.7045556,17.2380137,Veszprém,Közép-Dunántúl,3,192
Balatonszentgyörgy elágazás,46.702032,17.2574363,Veszprém,Közép-Dunántúl,3,193
Balatonszepezd,46.8511322,17.6630715,Veszprém,Közép-Dunántúl,3,194
Balatonszárszó,46.8321099,17.8304136,Veszprém,Közép-Dunántúl,3,195
Balatonszéplak alsó,46.8912786,17.9910355,Veszprém,Közép-Dunántúl,3,196
Balatonszéplak felső,46.8973955,18.0159286,Fejér,Közép-Dunántúl,3,197
Balatonudvari,46.9047378,17.8078597,Veszprém,Közép-Dunántúl,3,198
Balatonvilágos,46.9639554,18.1577232,Fejér,Közép-Dunántúl,3,199
Balatonújlak,46.6749405,17.3975639,Veszprém,Közép-Dunántúl,3,200
Balffürdő,47.6441012,16.6543697,Győr-Moson-Sopron,Nyugat-Dunántúl,4,201
Balinka,47.3187857,18.1488867,Fejér,Közép-Dunántúl,3,202
Balkán utca,47.4740734,19.1161124,Budapest,Budapest,6,203
Balkány,47.7715316,21.8488114,Hajdú-Bihar,Észak-Alföld,1,204
Ballatanya,47.5318956,21.6945595,Hajdú-Bihar,Észak-Alföld,1,205
Ballószög,46.8574046,19.5715338,Bács-Kiskun,Dél-Alföld,2,206
Balmazújváros,47.613865,21.3480385,Hajdú-Bihar,Észak-Alföld,1,207
Balotaszállás,46.3493364,19.5330918,Bács-Kiskun,Dél-Alföld,2,208
Balotaszállás forgalmi kitérő,46.3541423,19.530774,Bács-Kiskun,Dél-Alföld,2,209
Balsa,48.1708632,21.5499412,Szabolcs-Szatmár-Bereg,Észak-Alföld,1,210
Balsa-Tiszapart,48.1759479,21.5486236,Szabolcs-Szatmár-Bereg,Észak-Alföld,1,211
Balástya,46.4132189,20.001552,Bács-Kiskun,Dél-Alföld,2,212
Baláta,46.3063117,17.2116309,Zala,Nyugat-Dunántúl,4,213
Balázs Béla utca,47.4768224,19.0819416,Budapest,Budapest,6,214
Balázs Győző tér,48.1035718,20.7513739,Borsod-Abaúj-Zemplén,Észak-Magyarország,0,215
Barackos,47.8384135,18.8512982,Nógrád,Észak-Magyarország,0,216
Baracska,47.29829,18.7548156,Fejér,Közép-Dunántúl,3,217
Barcs,45.951743,17.4467318,Baranya,Dél-Dunántúl,5,218
Barcs felső,45.9583398,17.4862097,Baranya,Dél-Dunántúl,5,219
Barcs-Kemikál iparvágány kiágazás,45.9537708,17.4748362,Baranya,Dél-Dunántúl,5,220
Baross utca,47.4444679,19.175632,Budapest,Budapest,6,221
Barosstelep,47.3987412,18.9890737,Budapest,Budapest,6,222
Barátság,47.6157397,16.6896795,Győr-Moson-Sopron,Nyugat-Dunántúl,4,223
Bashalom,48.0261429,21.5145233,Szabolcs-Szatmár-Bereg,Észak-Alföld,1,224
Batthyány tér,47.5071525,19.0394089,Budapest,Budapest,6,225
Batthyány tér M+H,47.5057304,19.0393796,Budapest,Budapest,6,226
Battonya,46.2819886,21.0041546,Békés,Dél-Alföld,2,227
Baté,46.3556809,17.9609652,Baranya,Dél-Dunántúl,5,228
Becehegy,46.7759704,17.3725537,Veszprém,Közép-Dunántúl,3,229
Becske alsó,47.8955898,19.3672635,Nógrád,Észak-Magyarország,0,230
Belecska,46.6396816,18.4114324,Veszprém,Közép-Dunántúl,3,231
Beled,47.4666397,17.0846662,Veszprém,Közép-Dunántúl,3,232
Beleg,46.3167842,17.4206547,Baranya,Dél-Dunántúl,5,233
Belezna,46.3264903,16.8776453,Zala,Nyugat-Dunántúl,4,234
Belsőbáránd,47.1029654,18.4997959,Fejér,Közép-Dunántúl,3,235
Belsőkamaráspuszta,46.3413067,20.8485099,Békés,Dél-Alföld,2,236
Belsőperegpuszta,46.32027,20.90614,Békés,Dél-Alföld,2,237
Belvárosi temető,46.2559843,20.106243,Bács-Kiskun,Dél-Alföld,2,238
Belvárosi temető II. kapu,46.258871,20.1067939,Bács-Kiskun,Dél-Alföld,2,239
Bem József tér,47.5117981,19.0393433,Budapest,Budapest,6,240
Bem tér,47.5414361,21.6250743,Hajdú-Bihar,Észak-Alföld,1,241
Bem utca,46.2400865,20.1411566,Bács-Kiskun,Dél-Alföld,2,242
Bence átjáró,47.997249,18.9017803,Nógrád,Észak-Magyarország,0,243
Berekfürdő,47.3749349,20.8273428,Hajdú-Bihar,Észak-Alföld,1,244
Berekhát,46.6346069,20.2727239,Bács-Kiskun,Dél-Alföld,2,245
Beremend BCM gyártelep,45.811671,18.4011763,Baranya,Dél-Dunántúl,5,246
Beremendi Cementmű,45.8321071,18.3952312,Baranya,Dél-Dunántúl,5,247
Beremendi Cementmű 0+27 szelvény pályavasúti határpont,45.8306101,18.3899751,Baranya,Dél-Dunántúl,5,248
Berente,48.2386925,20.6729516,Borsod-Abaúj-Zemplén,Észak-Magyarország,0,249
Berente-Rendező,48.2423318,20.6680044,Borsod-Abaúj-Zemplén,Észak-Magyarország,0,250
Berettyóújfalu,47.2121948,21.532285,Hajdú-Bihar,Észak-Alföld,1,251
Berhida,47.1047945,18.1298447,Fejér,Közép-Dunántúl,3,252
Berkenye,47.8854887,19.0713366,Nógrád,Észak-Magyarország,0,253
Berzence,46.2012426,17.1437397,Zala,Nyugat-Dunántúl,4,254
Betoncső térplasztika,47.5335365,19.0664001,Budapest,Budapest,6,255
Bezenye,47.9733687,17.2076995,Győr-Moson-Sopron,Nyugat-Dunántúl,4,256
Biatorbágy,47.4807328,18.8340163,Komárom-Esztergom,Közép-Dunántúl,3,257
Biatorbágy forgalmi iroda,47.4798817,18.8344158,Komárom-Esztergom,Közép-Dunántúl,3,258
Bicere,46.6598047,21.179531,Békés,Dél-Alföld,2,259
Bicske,47.4841787,18.617494,Komárom-Esztergom,Közép-Dunántúl,3,260
Bicske alsó,47.4863604,18.6421673,Komárom-Esztergom,Közép-Dunántúl,3,261
Bicske forgalmi iroda,47.4843615,18.6184587,Komárom-Esztergom,Közép-Dunántúl,3,262
Bicsérd,46.0410126,18.053902,Baranya,Dél-Dunántúl,5,263
Biharkeresztes,47.1354632,21.7219147,Hajdú-Bihar,Észak-Alföld,1,264
Biharnagybajom,47.2087677,21.2217791,Hajdú-Bihar,Észak-Alföld,1,265
Biharnagybajom-Cukorgyár iparvágány kiágazás,47.1829102,21.2221509,Hajdú-Bihar,Észak-Alföld,1,266
Biharnagybajom-Gabona iparvágány kiágazás,47.197914,21.2284538,Hajdú-Bihar,Észak-Alföld,1,267
Bikás park,47.4649438,19.0323996,Budapest,Budapest,6,268
Bikás park M,47.4636049,19.0333096,Budapest,Budapest,6,269
Biri,47.8152364,21.8485123,Szabolcs-Szatmár-Bereg,Észak-Alföld,1,270
Blaha Lujza tér,47.4967125,19.0691136,Budapest,Budapest,6,271
Blaha Lujza tér M,47.496743,19.0706533,Budapest,Budapest,6,272
Blaha Lujza tér M (Népszínház utca),47.4960654,19.0712614,Budapest,Budapest,6,273
Boba,47.1829415,17.1911812,Veszprém,Közép-Dunántúl,3,274
Bocfölde,46.7780781,16.85323,Vas,Nyugat-Dunántúl,4,275
Bocskaikert,47.640657,21.6660948,Hajdú-Bihar,Észak-Alföld,1,276
Bodajk,47.3181226,18.252042200000002,Fejér,Közép-Dunántúl,3,277
Bodajk felső,47.328887,18.235532,Fejér,Közép-Dunántúl,3,278
Bodolyabér,46.200004,18.1290108,Baranya,Dél-Dunántúl,5,279
Bodrogkeresztúr,48.1757511,21.3544178,Borsod-Abaúj-Zemplén,Észak-Magyarország,0,280
Bodrogolaszi,48.2854853,21.5122185,Szabolcs-Szatmár-Bereg,Észak-Alföld,1,281
Bogdása,45.8694145,17.7820818,Baranya,Dél-Dunántúl,5,282
Bogárzó,46.5406746,20.6774444,Békés,Dél-Alföld,2,283
Bojsza,46.3070526,17.2145703,Zala,Nyugat-Dunántúl,4,284
Bokod,47.5137102,18.2659233,Komárom-Esztergom,Közép-Dunántúl,3,285
Bokréta utca,47.4794658,19.0722781,Budapest,Budapest,6,286
Boldogkőváralja,48.345003,21.2087147,Borsod-Abaúj-Zemplén,Észak-Magyarország,0,287
Boldva,48.2232084,20.7905513,Borsod-Abaúj-Zemplén,Észak-Magyarország,0,288
Bolhás,46.2821318,17.2752394,Zala,Nyugat-Dunántúl,4,289
Bonnya,46.6095678,17.9105229,Veszprém,Közép-Dunántúl,3,290
Bonyhád,46.2951944,18.5337031,Baranya,Dél-Dunántúl,5,291
Boros-Pincehely,47.5429097,19.0977401,Budapest,Budapest,6,292
Borsihalom,46.7698424,19.9128131,Jász-Nagykun-Szolnok,Észak-Alföld,1,293
Borsodszirák,48.2584669,20.7709042,Borsod-Abaúj-Zemplén,Észak-Magyarország,0,294
Borsosberény,47.9732328,19.094767,Nógrád,Észak-Magyarország,0,295
Boráros tér,47.4790718,19.0665583,Budapest,Budapest,6,296
Boráros tér H,47.4801032,19.066081,Budapest,Budapest,6,297
Bosnyák tér,47.5191679,19.1126106,Budapest,Budapest,6,298
Brüsszeli körút,46.2618632,20.1575707,Bács-Kiskun,Dél-Alföld,2,299
Bucsuta,46.5622326,16.8274976,Zala,Nyugat-Dunántúl,4,300
Budafa,46.8514388,16.6248572,Vas,Nyugat-Dunántúl,4,301
Budafok,47.4248379,19.0414041,Budapest,Budapest,6,302
Budafok kocsiszín,47.4418112,19.036528,Budapest,Budapest,6,303
"Budafok, Városház tér",47.4264526,19.0394324,Budapest,Budapest,6,304
Budafoki elágazás,47.4354473,19.0361171,Budapest,Budapest,6,305
Budafoki út / Dombóvári út,47.4698143,19.0536716,Budapest,Budapest,6,306
Budafoki út / Karinthy Frigyes út,47.4758347,19.0541017,Budapest,Budapest,6,307
Budafoki út / Szerémi sor,47.4740979,19.0537666,Budapest,Budapest,6,308
Budagyöngye,47.5160969,18.999183,Budapest,Budapest,6,309
Budai út,47.2083257,19.732403,Pest,Pest,7,310
Budakalász,47.6161478,19.054893,Budapest,Budapest,6,311
"Budakalász, Lenfonó",47.6216559,19.0468961,Budapest,Budapest,6,312
Budapest Kikötő,47.4414688,19.0710411,Budapest,Budapest,6,313
Budapest KÖFI,47.4998919,19.0977464,Budapest,Budapest,6,314
Budapest-Déli,47.4994789,19.0248757,Budapest,Budapest,6,315
Budapest-Józsefváros,47.4886217,19.1050485,Budapest,Budapest,6,316
Budapest-Kelenföld,47.4634967,19.0213976,Budapest,Budapest,6,317
Budapest-Kelenföld forgalmi iroda,47.4652705,19.0191252,Budapest,Budapest,6,318
Budapest-Keleti,47.5006365,19.0860909,Budapest,Budapest,6,319
Budapest-Nyugati,47.5112623,19.0591818,Budapest,Budapest,6,320
Budapesti körút,46.2728927,20.1593131,Bács-Kiskun,Dél-Alföld,2,321
Budatétény,47.4060445,19.0189639,Budapest,Budapest,6,322
Budaörs,47.447557,18.965777,Budapest,Budapest,6,323
Budaörs forgalmi iroda,47.4477628,18.964962,Budapest,Budapest,6,324
Budaörs-ISG ipvk.,47.4500417,18.9124586,Pest,Pest,7,325
Budaörsi út / Villányi út,47.4840988,19.0267888,Budapest,Budapest,6,326
Bugac,46.6842847,19.6770803,Bács-Kiskun,Dél-Alföld,2,327
Bugac felső,46.6609938,19.6599265,Bács-Kiskun,Dél-Alföld,2,328
Buj,48.0978412,21.6526931,Szabolcs-Szatmár-Bereg,Észak-Alföld,1,329
Bulgárföld városrész,48.1004256,20.713235,Borsod-Abaúj-Zemplén,Észak-Magyarország,0,330
Bábonymegyer,46.7461089,18.1099082,Veszprém,Közép-Dunántúl,3,331
Bácsalmás,46.1176759,19.3467014,Bács-Kiskun,Dél-Alföld,2,332
Bácsbokod-Bácsborsód,46.1155569,19.1594005,Bács-Kiskun,Dél-Alföld,2,333
Bácsszőlős,46.117023,19.412711,Bács-Kiskun,Dél-Alföld,2,334
Bálint Sándor utca,46.2707549,20.1391236,Bács-Kiskun,Dél-Alföld,2,335
Bánhalma-Halastó,47.3247483,20.665501,Heves,Észak-Magyarország,0,336
Bánhida,47.5739366,18.3722822,Komárom-Esztergom,Közép-Dunántúl,3,337
Bánhidai Erőmű kiágazás,47.5693994,18.363962,Komárom-Esztergom,Közép-Dunántúl,3,338
Bánk,47.9210305,19.1851656,Nógrád,Észak-Magyarország,0,339
Bánkút,46.5054096,21.0940045,Békés,Dél-Alföld,2,340
Bánkürtös,46.5909417,16.857113,Zala,Nyugat-Dunántúl,4,341
Bánokszentgyörgy,46.5421944,16.7789973,Zala,Nyugat-Dunántúl,4,342
Bánréve,48.2999494,20.3519789,Borsod-Abaúj-Zemplén,Észak-Magyarország,0,343
Bánrévei Vízmű,48.2840056,20.36802,Borsod-Abaúj-Zemplén,Észak-Magyarország,0,344
Bártfai utca,47.4640913,19.0296236,Budapest,Budapest,6,345
Báránd,47.2997414,21.2353122,Hajdú-Bihar,Észak-Alföld,1,346
Bátaszék,46.2026126,18.7153728,Bács-Kiskun,Dél-Alföld,2,347
Bázakerettye alsó,46.5261998,16.7296273,Zala,Nyugat-Dunántúl,4,348
Bázakerettye felső,46.5152871,16.7279059,Zala,Nyugat-Dunántúl,4,349
Bécsi körút,46.2433639,20.1436692,Bács-Kiskun,Dél-Alföld,2,350
Bécsi út / Vörösvári út,47.5480148,19.0293351,Budapest,Budapest,6,351
Béke tér,47.5293878,19.0802185,Budapest,Budapest,6,352
Békásmegyer,47.5985529,19.0550449,Budapest,Budapest,6,353
Békásmegyer felső,47.6048084,19.0583811,Budapest,Budapest,6,354
"Békásmegyer, fordítóvágányok",47.6005897,19.0563948,Budapest,Budapest,6,355
Békéscsaba,46.6698764,21.0811819,Békés,Dél-Alföld,2,356
Békéscsaba-Vill. aláll. ipvk.,46.690235,21.064394,Békés,Dél-Alföld,2,357
Bélapátfalva,48.0557344,20.3406884,Borsod-Abaúj-Zemplén,Észak-Magyarország,0,358
Bélapátfalvai Cementgyár,48.0575944,20.3529708,Borsod-Abaúj-Zemplén,Észak-Magyarország,0,359
Bélatelep,46.7373375,17.5346136,Veszprém,Közép-Dunántúl,3,360
Bélavár,46.1225031,17.2083345,Zala,Nyugat-Dunántúl,4,361
Bódvaszilas,48.5374496,20.737981,Borsod-Abaúj-Zemplén,Észak-Magyarország,0,362
Bóly,45.9376148,18.5383737,Baranya,Dél-Dunántúl,5,363
Bóly forgalmi iroda,45.9376165,18.5381873,Baranya,Dél-Dunántúl,5,364
Böhönye,46.409719,17.4066741,Baranya,Dél-Dunántúl,5,365
Bölcs utca,48.1038526,20.683862,Borsod-Abaúj-Zemplén,Észak-Magyarország,0,366
Bölcske,46.7295693,18.92674,Bács-Kiskun,Dél-Alföld,2,367
Börgönd,47.139993,18.5150207,Fejér,Közép-Dunántúl,3,368
Börzsönyliget,47.8440862,19.0159302,Nógrád,Észak-Magyarország,0,369
Bösztör forgalmi kitérő,46.9382232,19.1595948,Bács-Kiskun,Dél-Alföld,2,370
Búcsúszentlászló,46.7921367,16.9326684,Vas,Nyugat-Dunántúl,4,371
"Búsvári-tó, Kilátó v.m.",46.4885905,17.4589999,Baranya,Dél-Dunántúl,5,372
Büdöskútpuszta,48.3739482,20.7255929,Borsod-Abaúj-Zemplén,Észak-Magyarország,0,373
Büdöskútpuszta ÁTI iparvágány kiágazás,48.3668992,20.7260634,Borsod-Abaúj-Zemplén,Észak-Magyarország,0,374
Bük,47.3886682,16.7523487,Győr-Moson-Sopron,Nyugat-Dunántúl,4,375
Bükkábrány,47.8698921,20.6853553,Borsod-Abaúj-Zemplén,Észak-Magyarország,0,376
Bükkösd,46.1130733,17.9996804,Baranya,Dél-Dunántúl,5,377
Bükkösd-Kőbánya iparvágány kiágazás,46.1274894,18.0197568,Baranya,Dél-Dunántúl,5,378
Bőrfestő utca,47.5874532,19.1181094,Budapest,Budapest,6,379
Bőröndös utca,47.5856389,19.1174386,Budapest,Budapest,6,380
Bősárkány,47.6854489,17.2342043,Veszprém,Közép-Dunántúl,3,381
Cece,46.7721885,18.6238132,Bács-Kiskun,Dél-Alföld,2,382
Cegléd,47.1827899,19.8054522,Jász-Nagykun-Szolnok,Észak-Alföld,1,383
Ceglédbercel,47.2162493,19.6577087,Pest,Pest,7,384
Ceglédbercel-Cserő,47.2102838,19.6872239,Pest,Pest,7,385
Ceglédi szállások,47.168312,19.8263401,Jász-Nagykun-Szolnok,Észak-Alföld,1,386
Celldömölk,47.261457,17.152207400000002,Veszprém,Közép-Dunántúl,3,387
Celldömölk-Rendező,47.2482411,17.1694381,Veszprém,Közép-Dunántúl,3,388
Center,48.2525688,20.3450542,Borsod-Abaúj-Zemplén,Észak-Magyarország,0,389
Center alsó,48.26242,20.3570739,Borsod-Abaúj-Zemplén,Észak-Magyarország,0,390
Cikó,46.2635328,18.5575288,Baranya,Dél-Dunántúl,5,391
Cinkota,47.5193967,19.2172596,Budapest,Budapest,6,392
Cinkota alsó,47.5268002,19.2209355,Budapest,Budapest,6,393
Clark Ádám tér,47.4976893,19.0415333,Budapest,Budapest,6,394
Corvin körút,47.462133,19.1341008,Budapest,Budapest,6,395
Corvin-negyed,47.4848861,19.0722081,Budapest,Budapest,6,396
Corvin-negyed M,47.485532,19.069877,Budapest,Budapest,6,397
Csabacsűd,46.8227886,20.6635347,Jász-Nagykun-Szolnok,Észak-Alföld,1,398
Csabacsűd felső,46.8292091,20.6492037,Jász-Nagykun-Szolnok,Észak-Alföld,1,399
Csajág,47.0336265,18.1862057,Fejér,Közép-Dunántúl,3,400
Csajág felső,47.043335,18.1792678,Fejér,Közép-Dunántúl,3,401
Csanyik,48.1238643,20.648936,Borsod-Abaúj-Zemplén,Észak-Magyarország,0,402
Csanádpalota,46.236087,20.7327033,Békés,Dél-Alföld,2,403
Csarnapuszta,48.0086201,18.891604,Nógrád,Észak-Magyarország,0,404
Csemete utca,47.5358734,21.6179704,Hajdú-Bihar,Észak-Alföld,1,405
Csengele,46.5383935,19.9091095,Bács-Kiskun,Dél-Alföld,2,406
Csenger,47.8261178,22.6662945,Szabolcs-Szatmár-Bereg,Észak-Alföld,1,407
Csengettyű utca,47.4634696,19.109639,Budapest,Budapest,6,408
Csengőd,46.7175273,19.2741021,Bács-Kiskun,Dél-Alföld,2,409
Csengőd forgalmi kitérő,46.7061375,19.2765228,Bács-Kiskun,Dél-Alföld,2,410
Csepel,47.42178,19.0662948,Budapest,Budapest,6,411
Csepel I/3 kitérő pvh.,47.4382474,19.0733989,Budapest,Budapest,6,412
Csepeli rendezőpályaudvar,47.4354279,19.0595227,Budapest,Budapest,6,413
Cserdi-Helesfa,46.0855422,17.987539,Baranya,Dél-Dunántúl,5,414
Csereerdő,47.5290803,21.7217084,Hajdú-Bihar,Észak-Alföld,1,415
Cserkő,47.8387609,19.9310804,Heves,Észak-Magyarország,0,416
Csibrák,46.4661516,18.3353104,Baranya,Dél-Dunántúl,5,417
Csikéria,46.116411,19.492693,Bács-Kiskun,Dél-Alföld,2,418
Csikóstőttős,46.3371309,18.1527653,Baranya,Dél-Dunántúl,5,419
Csillaghegy,47.5859343,19.0448983,Budapest,Budapest,6,420
Csillaghegy forgalmi kitérő,47.5810316,19.0467353,Budapest,Budapest,6,421
Csillebérc,47.4981149,18.9614099,Budapest,Budapest,6,422
Csincse,47.8907731,20.7638976,Borsod-Abaúj-Zemplén,Észak-Magyarország,0,423
Csiszta elágazás,46.6643341,17.5223437,Veszprém,Közép-Dunántúl,3,424
Csisztafürdő,46.682207,17.5614219,Veszprém,Közép-Dunántúl,3,425
Csittényhegy,47.0252386,18.1375165,Fejér,Közép-Dunántúl,3,426
Csobád,48.276764,21.0332762,Borsod-Abaúj-Zemplén,Észak-Magyarország,0,427
Csokonai Vitéz Mihály Gimnázium,47.5531166,21.6129588,Hajdú-Bihar,Észak-Alföld,1,428
Csokvaomány,48.1651979,20.3983742,Borsod-Abaúj-Zemplén,Észak-Magyarország,0,429
Csoma-Szabadi,46.3662762,18.0447574,Baranya,Dél-Dunántúl,5,430
Csomád,47.6357205,19.2216786,Pest,Pest,7,431
Csongrád,46.7044213,20.1401294,Jász-Nagykun-Szolnok,Észak-Alföld,1,432
Csongrád alsó,46.7114561,20.1276748,Jász-Nagykun-Szolnok,Észak-Alföld,1,433
Csongrádi úti tanyák,46.6902363,19.9222042,Bács-Kiskun,Dél-Alföld,2,434
Csonka János tér,47.4702787,19.0450638,Budapest,Budapest,6,435
Csopak,46.9749486,17.931908,Veszprém,Közép-Dunántúl,3,436
Csorna,47.6018233,17.2488676,Veszprém,Közép-Dunántúl,3,437
Csorna KÖFI,47.6019915,17.2486376,Veszprém,Közép-Dunántúl,3,438
Csorvás,46.6234417,20.8410397,Békés,Dél-Alföld,2,439
Csorvás alsó,46.6352158,20.8897162,Békés,Dél-Alföld,2,440
Csugar,47.0502708,20.5413819,Jász-Nagykun-Szolnok,Észak-Alföld,1,441
Csurgó,46.2611758,17.0917827,Zala,Nyugat-Dunántúl,4,442
Csákánydoroszló,46.9783692,16.4996288,Vas,Nyugat-Dunántúl,4,443
Csánig,47.4304946,17.0263079,Veszprém,Közép-Dunántúl,3,444
Csányoszró,45.8844227,17.9097545,Baranya,Dél-Dunántúl,5,445
Csárdaszállás,46.8620282,20.9304298,Jász-Nagykun-Szolnok,Észak-Alföld,1,446
Császár,47.5084755,18.1491668,Komárom-Esztergom,Közép-Dunántúl,3,447
Császárszállás,47.8883178,21.715477,Szabolcs-Szatmár-Bereg,Észak-Alföld,1,448
Csépa,46.8125002,20.1346604,Jász-Nagykun-Szolnok,Észak-Alföld,1,449
Csóka utca (Karinthy Színház),47.4708993,19.0291624,Budapest,Budapest,6,450
Csókakő,47.3298283,18.2376919,Fejér,Közép-Dunántúl,3,451
Csór-Nádasdladány,47.1739534,18.2204903,Fejér,Közép-Dunántúl,3,452
Csömödér ÁEV,46.6067443,16.6415263,Zala,Nyugat-Dunántúl,4,453
Csömödér-Páka,46.6078142,16.6420285,Zala,Nyugat-Dunántúl,4,454
Csömödéri-tó,46.6155208,16.6221638,Zala,Nyugat-Dunántúl,4,455
Csömör,47.545088,19.224715,Budapest,Budapest,6,456
Csörsz utca,47.4908119,19.0244284,Budapest,Budapest,6,457
Csörög,47.7360987,19.1958612,Nógrád,Észak-Magyarország,0,458
DAB-székház,47.5481896,21.6151285,Hajdú-Bihar,Észak-Alföld,1,459
DVTK Stadion,48.1009838,20.7192738,Borsod-Abaúj-Zemplén,Észak-Magyarország,0,460
Dabas,47.1946704,19.3293656,Pest,Pest,7,461
Dabronc,47.0257606,17.1670074,Veszprém,Közép-Dunántúl,3,462
Dad,47.5229477,18.2280417,Komárom-Esztergom,Közép-Dunántúl,3,463
Dal utca,47.5672842,19.1209428,Budapest,Budapest,6,464
Damjanich utca,46.2628104,20.1350543,Bács-Kiskun,Dél-Alföld,2,465
Darány,45.9921931,17.5983245,Baranya,Dél-Dunántúl,5,466
Darány forgalmi iroda,45.9921073,17.5981875,Baranya,Dél-Dunántúl,5,467
Daránypuszta,46.766498,18.1467435,Veszprém,Közép-Dunántúl,3,468
Debrecen,47.520539,21.6294996,Hajdú-Bihar,Észak-Alföld,1,469
Debrecen 21/22. szelvény iparvágány kiágazás,47.4988714,21.6086444,Hajdú-Bihar,Észak-Alföld,1,470
Debrecen KÖFI,47.5301239,21.625739,Hajdú-Bihar,Észak-Alföld,1,471
Debrecen-Csapókert,47.540588,21.6481214,Hajdú-Bihar,Észak-Alföld,1,472
Debrecen-Fatelep,47.529634,21.6476695,Hajdú-Bihar,Észak-Alföld,1,473
Debrecen-Szabadságtelep,47.5277071,21.6586513,Hajdú-Bihar,Észak-Alföld,1,474
Debrecen-Tégláskert,47.5027135,21.6082996,Hajdú-Bihar,Észak-Alföld,1,475
Decs,46.2838441,18.7559305,Bács-Kiskun,Dél-Alföld,2,476
Dejtár,48.0456131,19.1967038,Nógrád,Észak-Magyarország,0,477
Demecser,48.1115364,21.9271024,Szabolcs-Szatmár-Bereg,Észak-Alföld,1,478
Derecske,47.3636102,21.5829796,Hajdú-Bihar,Észak-Alföld,1,479
Derecske-Vásártér,47.3514646,21.5811399,Hajdú-Bihar,Észak-Alföld,1,480
Deszk,46.2099401,20.2459684,Bács-Kiskun,Dél-Alföld,2,481
Devecser,47.1121581,17.4358754,Veszprém,Közép-Dunántúl,3,482
Deák Ferenc Gimnázium,46.2695793,20.1577062,Bács-Kiskun,Dél-Alföld,2,483
Deák Ferenc tér,47.4987174,19.0535832,Budapest,Budapest,6,484
Deák Ferenc tér M,47.4974708,19.0551918,Budapest,Budapest,6,485
Deák tér - M1 M2 M3 metró,47.4970827,19.0540857,Budapest,Budapest,6,486
Deák tér - M1 metró,47.4975941,19.0533502,Budapest,Budapest,6,487
Dinnyés,47.1809081,18.5638777,Fejér,Közép-Dunántúl,3,488
Diósgyőr,48.103575,20.6936772,Borsod-Abaúj-Zemplén,Észak-Magyarország,0,489
Diósgyőr városközpont,48.1016807,20.6887642,Borsod-Abaúj-Zemplén,Észak-Magyarország,0,490
Diósgyőr-Vasgyár,48.091334,20.7503399,Borsod-Abaúj-Zemplén,Észak-Magyarország,0,491
Diósgyőri Gimnázium,48.100187,20.7083066,Borsod-Abaúj-Zemplén,Észak-Magyarország,0,492
Diósjenő,47.9400265,19.0494616,Nógrád,Észak-Magyarország,0,493
Dobaipuszta,46.9751567,21.4536754,Hajdú-Bihar,Észak-Alföld,1,494
Doberdó utca,47.5568925,21.609756,Hajdú-Bihar,Észak-Alföld,1,495
Doboskerti elágazás,46.6399133,16.6062483,Zala,Nyugat-Dunántúl,4,496
Dologház utca,47.4963544,19.083391,Budapest,Budapest,6,497
Dombaytó,46.1451633,18.3992821,Baranya,Dél-Dunántúl,5,498
Dombostanya,47.6028249,21.706544,Hajdú-Bihar,Észak-Alföld,1,499
Dombrád,48.2256206,21.9235966,Szabolcs-Szatmár-Bereg,Észak-Alföld,1,500
Dombóvár,46.3699064,18.1496155,Baranya,Dél-Dunántúl,5,501
Dombóvár alsó,46.363663,18.1340598,Baranya,Dél-Dunántúl,5,502
Dombóvár elágazás,46.3563824,18.1428014,Baranya,Dél-Dunántúl,5,503
Dorog,47.7235927,18.7327676,Komárom-Esztergom,Közép-Dunántúl,3,504
Drávacsepely,45.8394453,18.1334391,Baranya,Dél-Dunántúl,5,505
Drávafok,45.8877452,17.7518901,Baranya,Dél-Dunántúl,5,506
Drávatamási,45.9616364,17.5883955,Baranya,Dél-Dunántúl,5,507
Drégely,48.042434,19.056962,Nógrád,Észak-Magyarország,0,508
Drégelypalánk,48.0547614,19.0472416,Nógrád,Észak-Magyarország,0,509
Drégelypalánk forgalmi iroda,48.0546943,19.0468226,Nógrád,Észak-Magyarország,0,510
Drégelyvár,48.0019815,19.0795439,Nógrád,Észak-Magyarország,0,511
Dubicsány,48.280649,20.5046082,Borsod-Abaúj-Zemplén,Észak-Magyarország,0,512
Dudar,47.2967987,17.94373,Veszprém,Közép-Dunántúl,3,513
Dugonics tér (Kálvária sugárút),46.2510646,20.1438114,Bács-Kiskun,Dél-Alföld,2,514
Dugonics tér (Petőfi Sándor sugárút),46.2504473,20.1445283,Bács-Kiskun,Dél-Alföld,2,515
Dugonics tér (Tisza Lajos körút),46.2517461,20.1448816,Bács-Kiskun,Dél-Alföld,2,516
Dunaalmás,47.7331208,18.3264241,Komárom-Esztergom,Közép-Dunántúl,3,517
Dunaegyháza,46.8448255,19.0043092,Bács-Kiskun,Dél-Alföld,2,518
Dunaföldvár,46.7931215,18.9124721,Bács-Kiskun,Dél-Alföld,2,519
Dunaharaszti,47.3526738,19.0968272,Fejér,Közép-Dunántúl,3,520
Dunaharaszti alsó,47.3402105,19.0872327,Fejér,Közép-Dunántúl,3,521
Dunaharaszti elágazás,47.36552,19.10666,Fejér,Közép-Dunántúl,3,522
Dunaharaszti felső,47.3663884,19.0926626,Fejér,Közép-Dunántúl,3,523
Dunaharaszti külső,47.359981,19.0862224,Fejér,Közép-Dunántúl,3,524
Dunahíd forgalmi kitérő,47.360033,19.0779071,Fejér,Közép-Dunántúl,3,525
Dunai Finomító,47.2942945,18.8790807,Fejér,Közép-Dunántúl,3,526
Dunakeszi,47.6258148,19.1361387,Budapest,Budapest,6,527
Dunakeszi alsó,47.607198,19.1285421,Budapest,Budapest,6,528
Dunakeszi-Gyártelep,47.642835,19.1346375,Pest,Pest,7,529
Dunakömlőd,46.6686267,18.8807048,Bács-Kiskun,Dél-Alföld,2,530
Dunapataj,46.6465849,19.0087665,Bács-Kiskun,Dél-Alföld,2,531
Dunavarsány,47.2744321,19.064717,Fejér,Közép-Dunántúl,3,532
Dunavecse,46.9200237,18.980307,Bács-Kiskun,Dél-Alföld,2,533
Dunaújváros,46.9606121,18.9141032,Bács-Kiskun,Dél-Alföld,2,534
Dunaújváros kikötő,46.973749,18.9454739,Bács-Kiskun,Dél-Alföld,2,535
Dunaújváros külső,46.9831037,18.9031562,Bács-Kiskun,Dél-Alföld,2,536
Dunaújváros-Kikötő,46.9774333,18.943093,Bács-Kiskun,Dél-Alföld,2,537
Dunaújváros-Oszlopgyártó ipvk.,46.9880168,18.9007321,Bács-Kiskun,Dél-Alföld,2,538
Délegyháza,47.2535308,19.0609389,Fejér,Közép-Dunántúl,3,539
Délegyháza-Újbánya,47.2163286,19.0943694,Fejér,Közép-Dunántúl,3,540
Déli pályaudvar,47.5005761,19.024583,Budapest,Budapest,6,541
Déli pályaudvar M,47.50109,19.024135,Budapest,Budapest,6,542
"Déli pályaudvar, kihúzóvágányok",47.498343,19.025351,Budapest,Budapest,6,543
Dénesfa,47.4480826,17.0540928,Veszprém,Közép-Dunántúl,3,544
Dértanya,46.7245858,19.4223419,Bács-Kiskun,Dél-Alföld,2,545
Dévai utca,47.51855,19.0647589,Budapest,Budapest,6,546
Dévaványa,47.034037,20.9433468,Hajdú-Bihar,Észak-Alföld,1,547
Dónát,46.6698954,20.3682085,Csongrád-Csanád,Dél-Alföld,2,548
Dózsa György tér,47.4938049,19.0382404,Budapest,Budapest,6,549
Dózsa György utca,47.5387417,21.6170934,Hajdú-Bihar,Észak-Alföld,1,550
Dózsa György út,47.524445,19.0631686,Budapest,Budapest,6,551
Döbrentei tér,47.4917526,19.0433304,Budapest,Budapest,6,552
Döbrököz,46.4159112,18.2527202,Baranya,Dél-Dunántúl,5,553
Dömefölde,46.5836621,16.6637793,Zala,Nyugat-Dunántúl,4,554
Dömsöd,47.1104658,19.0797618,Fejér,Közép-Dunántúl,3,555
Dömörkapu,46.0993799,18.2306885,Baranya,Dél-Dunántúl,5,556
Dömösi átkelés,47.7706826,18.917282,Nógrád,Észak-Magyarország,0,557
Dör,47.6113972,17.2790378,Veszprém,Közép-Dunántúl,3,558
Dúzs,46.4940199,18.3773289,Baranya,Dél-Dunántúl,5,559
Ebes,47.462531,21.4886492,Hajdú-Bihar,Észak-Alföld,1,560
Ecser,47.4397255,19.3167277,Pest,Pest,7,561
Ecseri út,47.4705828,19.1114308,Budapest,Budapest,6,562
Ecseri út M,47.4712676,19.1093679,Budapest,Budapest,6,563
Edelény,48.2996949,20.7495488,Borsod-Abaúj-Zemplén,Észak-Magyarország,0,564
Edelény alsó,48.2788346,20.76086,Borsod-Abaúj-Zemplén,Észak-Magyarország,0,565
Eger,47.8916692,20.3818592,Borsod-Abaúj-Zemplén,Észak-Magyarország,0,566
Eger Téglagyár,47.8935973,20.396824,Borsod-Abaúj-Zemplén,Észak-Magyarország,0,567
Eger elágazás,47.8854403,20.389772,Borsod-Abaúj-Zemplén,Észak-Magyarország,0,568
Eger-Felnémet,47.9365077,20.3707538,Borsod-Abaúj-Zemplén,Észak-Magyarország,0,569
Eger-Rendező,47.8800152,20.3931123,Borsod-Abaúj-Zemplén,Észak-Magyarország,0,570
Eger-Rendező elágazás,47.8691116,20.3946834,Borsod-Abaúj-Zemplén,Észak-Magyarország,0,571
Eger-völgy,46.5268668,16.8618093,Zala,Nyugat-Dunántúl,4,572
Egeresvölgy-Varróház,47.9963729,20.4366482,Borsod-Abaúj-Zemplén,Észak-Magyarország,0,573
Egerfarmos,47.7114897,20.5223654,Heves,Észak-Magyarország,0,574
Egervár,47.9073166,20.3809324,Borsod-Abaúj-Zemplén,Észak-Magyarország,0,575
Egervár-Vasboldogasszony,46.9418827,16.8621655,Vas,Nyugat-Dunántúl,4,576
Egervölgyi repvágány,46.5312758,16.8553249,Zala,Nyugat-Dunántúl,4,577
Egressy tér,47.5144979,19.1207018,Budapest,Budapest,6,578
Egressy út / Hungária körút,47.5067547,19.1044403,Budapest,Budapest,6,579
Egyed-Rábacsanak,47.522084,17.316638,Veszprém,Közép-Dunántúl,3,580
Egyed-Rábacsanak külsőtéri kulcsszekrény,47.5220938,17.3165983,Veszprém,Közép-Dunántúl,3,581
Egyek,47.6166317,20.8839237,Hajdú-Bihar,Észak-Alföld,1,582
Egyek 605/606 szelvény iparvágány kiágazás,47.6174184,20.8615414,Hajdú-Bihar,Észak-Alföld,1,583
Egyetem,47.5529706,21.623184,Hajdú-Bihar,Észak-Alföld,1,584
Egyetemi Tangazdaság,47.2584594,18.9494157,Fejér,Közép-Dunántúl,3,585
Egyházasrádóc,47.0908446,16.6197349,Vas,Nyugat-Dunántúl,4,586
Egyházerdő,47.9724773,21.3650422,Borsod-Abaúj-Zemplén,Észak-Magyarország,0,587
Egykori Fertőszentmiklós alsó mh.,47.587409,16.8840071,Győr-Moson-Sopron,Nyugat-Dunántúl,4,588
Egykori sorompóőrház,47.2118644,17.0228705,Veszprém,Közép-Dunántúl,3,589
Egészségház,47.4840851,19.1172151,Budapest,Budapest,6,590
Eiffel Műhelyház,47.4851764,19.1130949,Budapest,Budapest,6,591
Elnök utca,47.4813778,19.0934376,Budapest,Budapest,6,592
Előhát,47.3632374,20.6541415,Heves,Észak-Magyarország,0,593
Előszállás,46.832729,18.8324536,Bács-Kiskun,Dél-Alföld,2,594
Előszállási I. iparvágány kiágazás,46.8237876,18.8670693,Bács-Kiskun,Dél-Alföld,2,595
Emőd,47.9307126,20.8226882,Borsod-Abaúj-Zemplén,Észak-Magyarország,0,596
Enese,47.644145,17.4249134,Veszprém,Közép-Dunántúl,3,597
Enying,46.922909,18.257955,Fejér,Közép-Dunántúl,3,598
Enying-Műtrágya Üzem,46.9092473,18.2646173,Fejér,Közép-Dunántúl,3,599
Enying-Műtrágya Üzem iparvágány kiágazás,46.9119816,18.2647059,Fejér,Közép-Dunántúl,3,600
Eperjeske alsó,48.3606827,22.190132,Szabolcs-Szatmár-Bereg,Észak-Alföld,1,601
Eperjeske elágazás,48.3535037,22.1448164,Szabolcs-Szatmár-Bereg,Észak-Alföld,1,602
Eperjeske határ vágányfonódás-elágazás,48.3621953,22.2088071,Szabolcs-Szatmár-Bereg,Észak-Alföld,1,603
Eperjeske vágányfonódás-elágazás,48.3533657,22.146713599999998,Szabolcs-Szatmár-Bereg,Észak-Alföld,1,604
Eperjeske-Rendező (normál),48.3597844,22.1955268,Szabolcs-Szatmár-Bereg,Észak-Alföld,1,605
Eperjeske-Rendező (széles),48.3569933,22.1782286,Szabolcs-Szatmár-Bereg,Észak-Alföld,1,606
Eperjeske-Rendezői vágányfonódás-elágazás,48.354309,22.160302,Szabolcs-Szatmár-Bereg,Észak-Alföld,1,607
Eperjeske-Átrakó,48.33149,22.1390559,Szabolcs-Szatmár-Bereg,Észak-Alföld,1,608
Eplény,47.1926806,17.9216807,Veszprém,Közép-Dunántúl,3,609
Epreserdő utca,47.459801,19.1115614,Budapest,Budapest,6,610
Ercsi,47.2469608,18.8753703,Fejér,Közép-Dunántúl,3,611
Ercsi elágazás,47.227412,18.8570395,Fejér,Közép-Dunántúl,3,612
Erdei iskola,47.5073824,18.9946626,Budapest,Budapest,6,613
Erdei kisvasút,47.3186416,16.5650471,Győr-Moson-Sopron,Nyugat-Dunántúl,4,614
Erdészlak,47.5433414,21.736691,Hajdú-Bihar,Észak-Alföld,1,615
Erdőbénye,48.2180309,21.4018614,Borsod-Abaúj-Zemplén,Észak-Magyarország,0,616
Erdőkertes,47.6620008,19.2958346,Pest,Pest,7,617
Erdőszél,46.3279753,19.3933834,Bács-Kiskun,Dél-Alföld,2,618
Erdőtelek,47.683148,20.3024289,Heves,Észak-Magyarország,0,619
Erdőtelek iparvágány kiágazás,47.6631152,20.3041098,Heves,Észak-Magyarország,0,620
"Erzsébet királyné útja, aluljáró",47.517578,19.0933252,Budapest,Budapest,6,621
Esze Tamás iskola,47.507201,18.9982136,Budapest,Budapest,6,622
Esztergom,47.7780494,18.7432847,Komárom-Esztergom,Közép-Dunántúl,3,623
Esztergom-Kertváros,47.742792,18.7171775,Komárom-Esztergom,Közép-Dunántúl,3,624
Ete,47.5155727,18.0780622,Komárom-Esztergom,Közép-Dunántúl,3,625
Etele út / Fehérvári út,47.4626702,19.0422511,Budapest,Budapest,6,626
Eternitgyár,47.7556367,18.5302424,Komárom-Esztergom,Közép-Dunántúl,3,627
Európa liget,46.2735823,20.147015,Bács-Kiskun,Dél-Alföld,2,628
Eötvös tér,47.4978848,19.0470939,Budapest,Budapest,6,629
Eötvös utca,47.5382694,21.6254251,Hajdú-Bihar,Észak-Alföld,1,630
Fancsika,47.5312681,21.703395,Hajdú-Bihar,Észak-Alföld,1,631
Farkasmály,47.8059376,19.9511363,Heves,Észak-Magyarország,0,632
Farkasréti temető,47.4843115,19.0056454,Budapest,Budapest,6,633
Farmos,47.3552864,19.8374772,Heves,Észak-Magyarország,0,634
Farád,47.5960072,17.1959104,Veszprém,Közép-Dunántúl,3,635
Fazola-kohó,48.1136848,20.5886224,Borsod-Abaúj-Zemplén,Észak-Magyarország,0,636
Fegyvergyár utca,47.4483085,19.09423,Budapest,Budapest,6,637
Fegyvernek-Örményes,47.1943642,20.5575311,Jász-Nagykun-Szolnok,Észak-Alföld,1,638
Fehér úti ipari park,47.4999121,19.1373953,Budapest,Budapest,6,639
Fehérgyarmat,47.9787929,22.5242139,Szabolcs-Szatmár-Bereg,Észak-Alföld,1,640
Fehértó felső,46.8547059,19.66154,Bács-Kiskun,Dél-Alföld,2,641
Fehérvárcsurgó,47.2860279,18.2915472,Fejér,Közép-Dunántúl,3,642
Feketeberek,46.6125944,16.7832853,Zala,Nyugat-Dunántúl,4,643
Feketehalomtanya,48.0834873,21.6621266,Szabolcs-Szatmár-Bereg,Észak-Alföld,1,644
Feketevölgy kitérő,47.9817093,18.8966104,Nógrád,Észak-Magyarország,0,645
Felcsút,47.4409747,18.5878901,Komárom-Esztergom,Közép-Dunántúl,3,646
Feldebrő,47.8112613,20.2189055,Borsod-Abaúj-Zemplén,Észak-Magyarország,0,647
Felnémet-Ásványbánya iparvágány kiágazás,47.9439772,20.3766935,Borsod-Abaúj-Zemplén,Észak-Magyarország,0,648
Felnémet-Új OMYA iparvágány kiágazás,47.9463294,20.3784049,Borsod-Abaúj-Zemplén,Észak-Magyarország,0,649
Felső-Majláth,48.1089286,20.6766676,Borsod-Abaúj-Zemplén,Észak-Magyarország,0,650
Felsőbogátpuszta,46.3576238,17.3808653,Zala,Nyugat-Dunántúl,4,651
Felsőcebe,46.6439943,19.3525086,Bács-Kiskun,Dél-Alföld,2,652
Felsőcsinger,47.099161,17.602987,Veszprém,Közép-Dunántúl,3,653
Felsőgalla,47.5519539,18.4484805,Komárom-Esztergom,Közép-Dunántúl,3,654
Felsőgöd,47.7058586,19.1435626,Nógrád,Észak-Magyarország,0,655
Felsőjánosfa,46.8413962,16.5434929,Vas,Nyugat-Dunántúl,4,656
Felsőkak,46.4813627,17.5091432,Baranya,Dél-Dunántúl,5,657
Felsőlajos,47.0690471,19.4983325,Pest,Pest,7,658
Felsőmocsolád,46.560676,17.8213833,Baranya,Dél-Dunántúl,5,659
Felsőméntelek,46.9869146,19.5578233,Bács-Kiskun,Dél-Alföld,2,660
Felsőpakony,47.3431963,19.2305302,Fejér,Közép-Dunántúl,3,661
Felsőrajk,46.6671786,16.9826863,Zala,Nyugat-Dunántúl,4,662
Felsőtárkány-Fűtőház,47.9797297,20.4319378,Borsod-Abaúj-Zemplén,Észak-Magyarország,0,663
Felsőzsolca,48.0836811,20.8660691,Borsod-Abaúj-Zemplén,Észak-Magyarország,0,664
Felsőzsolca-Kötek iparvágány kiágazás,48.0921438,20.890727,Borsod-Abaúj-Zemplén,Észak-Magyarország,0,665
Felsőújváros,47.7894615,19.9375592,Heves,Észak-Magyarország,0,666
Fenyveshegy,47.8180761,19.0683595,Nógrád,Észak-Magyarország,0,667
Fenékpuszta,46.7117282,17.2484956,Veszprém,Közép-Dunántúl,3,668
Ferenciek tere,47.4921232,19.0568126,Budapest,Budapest,6,669
Ferencváros,47.4688811,19.0908128,Budapest,Budapest,6,670
Ferencváros Keleti rendező,47.4618063,19.0984534,Budapest,Budapest,6,671
Ferencváros Nyugati rendező,47.459406,19.0951167,Budapest,Budapest,6,672
Ferencváros forgalmi iroda,47.4686923,19.0879341,Budapest,Budapest,6,673
Ferencváros kocsiszín,47.4708871,19.0916021,Budapest,Budapest,6,674
Ferencváros kocsiszín (kapu),47.4707216,19.0912751,Budapest,Budapest,6,675
Ferencváros vasútállomás - Málenkij Robot emlékhely,47.4702435,19.0885984,Budapest,Budapest,6,676
Ferencvárosi rendelőintézet,47.4771829,19.0758171,Budapest,Budapest,6,677
Ferihegy,47.4373797,19.2236369,Budapest,Budapest,6,678
Fertő utca / Bihari utca,47.4760833,19.1192112,Budapest,Budapest,6,679
Fertőboz,47.6247237,16.6919878,Győr-Moson-Sopron,Nyugat-Dunántúl,4,680
Fertőboz-Fűtőház,47.6231833,16.6948245,Győr-Moson-Sopron,Nyugat-Dunántúl,4,681
Fertődendréd,47.5888854,16.9378604,Győr-Moson-Sopron,Nyugat-Dunántúl,4,682
Fertőszentmiklós,47.5996814,16.859932,Győr-Moson-Sopron,Nyugat-Dunántúl,4,683
Fertőszéplak-Fertőd,47.6177298,16.8507061,Győr-Moson-Sopron,Nyugat-Dunántúl,4,684
Festetics Antal,47.647442,21.088428,Hajdú-Bihar,Észak-Alföld,1,685
Fiastyúk utca,47.5401638,19.0856129,Budapest,Budapest,6,686
Filatorigát,47.5517794,19.0463788,Budapest,Budapest,6,687
Fityeház,46.3790171,16.9215663,Zala,Nyugat-Dunántúl,4,688
Flórián tér,47.5415559,19.0399876,Budapest,Budapest,6,689
Folyás,47.80287,21.1387,Borsod-Abaúj-Zemplén,Észak-Magyarország,0,690
Fony,48.4106709,21.2423271,Borsod-Abaúj-Zemplén,Észak-Magyarország,0,691
Fonyód,46.7500962,17.5578146,Veszprém,Közép-Dunántúl,3,692
Fonyód KÖFI,46.7494985,17.5567053,Veszprém,Közép-Dunántúl,3,693
Fonyód utca,47.4438138,19.0368565,Budapest,Budapest,6,694
Fonyódliget,46.7581997,17.5893461,Veszprém,Közép-Dunántúl,3,695
Fonógyári út,46.2638594,20.109628,Bács-Kiskun,Dél-Alföld,2,696
Forgách utca,47.5382422,19.0690928,Budapest,Budapest,6,697
Forró-Encs,48.3273642,21.1174805,Borsod-Abaúj-Zemplén,Észak-Magyarország,0,698
Franciavágás,47.3492108,17.6378344,Komárom-Esztergom,Közép-Dunántúl,3,699
Frangepán utca,47.4243028,19.1232989,Budapest,Budapest,6,700
Fábiánsebestyén,46.6700633,20.4564882,Csongrád-Csanád,Dél-Alföld,2,701
Fácánkert,46.4492464,18.7353162,Bács-Kiskun,Dél-Alföld,2,702
Fényes,46.659921,21.1657188,Békés,Dél-Alföld,2,703
Fényesi szőlők,46.6593868,21.1506991,Békés,Dél-Alföld,2,704
Fényeslitke,48.2671243,22.1073085,Szabolcs-Szatmár-Bereg,Észak-Alföld,1,705
Fényeslitke-Déli rendező,48.2808568,22.1135135,Szabolcs-Szatmár-Bereg,Észak-Alföld,1,706
Fót,47.6114127,19.1820074,Budapest,Budapest,6,707
Fótfürdő,47.6220637,19.2006216,Budapest,Budapest,6,708
Fótújfalu,47.6149012,19.1929077,Budapest,Budapest,6,709
Földeák,46.3137401,20.4881875,Csongrád-Csanád,Dél-Alföld,2,710
Fövenyes,46.8936316,17.7896499,Veszprém,Közép-Dunántúl,3,711
Füle,47.0501055,18.2560376,Fejér,Közép-Dunántúl,3,712
Fülöpszállás,46.8207762,19.246958,Bács-Kiskun,Dél-Alföld,2,713
Fülőke utca,47.4453853,18.9914371,Budapest,Budapest,6,714
Fürjes,46.6722651,21.023468,Békés,Dél-Alföld,2,715
Füstös-forrás,47.8925054,18.8769231,Nógrád,Észak-Magyarország,0,716
Füzesabony,47.7510404,20.4134966,Heves,Észak-Magyarország,0,717
Füzesbokor,47.9887604,21.6477008,Szabolcs-Szatmár-Bereg,Észak-Alföld,1,718
Füzesgyarmat,47.112977,21.1942838,Hajdú-Bihar,Észak-Alföld,1,719
Füzesgyarmat-MOL iparvágány-kiágazás,47.0899048,21.2024825,Hajdú-Bihar,Észak-Alföld,1,720
Füzesgyarmatfürdő,47.0935939,21.2015801,Hajdú-Bihar,Észak-Alföld,1,721
Fő tér,47.542199,19.1409793,Budapest,Budapest,6,722
Fő utca,47.4565843,19.1472185,Budapest,Budapest,6,723
Fő út,47.5665103,19.1225496,Budapest,Budapest,6,724
Főbejárat,47.6921819,19.0448754,Pest,Pest,7,725
Fővám tér,47.4865128,19.0580571,Budapest,Budapest,6,726
Fővám tér M,47.4867842,19.0566125,Budapest,Budapest,6,727
Fűrész utca,47.526234,19.1049893,Budapest,Budapest,6,728
GV 308 delta,46.590048,20.0785286,Bács-Kiskun,Dél-Alföld,2,729
Gacsály,47.9263319,22.7447712,Szabolcs-Szatmár-Bereg,Észak-Alföld,1,730
Galamb utca,46.2416666,20.1424182,Bács-Kiskun,Dél-Alföld,2,731
Galambos,46.6251538,19.8013513,Bács-Kiskun,Dél-Alföld,2,732
Galgaguta,47.8463682,19.3861252,Nógrád,Észak-Magyarország,0,733
Galgagyörk,47.7355258,19.3722062,Nógrád,Észak-Magyarország,0,734
Galgahévíz,47.6323767,19.5586448,Pest,Pest,7,735
Galgamácsa,47.6938813,19.3927413,Pest,Pest,7,736
Galgamácsa forgalmi iroda,47.6937223,19.3923891,Pest,Pest,7,737
Galya térköz,47.79506,19.9409211,Heves,Észak-Magyarország,0,738
Ganz forgalmi kitérő,47.5936734,19.3330614,Pest,Pest,7,739
Garadna,48.1160948,20.5581996,Borsod-Abaúj-Zemplén,Észak-Magyarország,0,740
Gecse-Gyarmat,47.4561134,17.5151031,Komárom-Esztergom,Közép-Dunántúl,3,741
Gelse,46.6002182,16.9825813,Zala,Nyugat-Dunántúl,4,742
Gemenc-Dunapart,46.3209615,18.9077926,Bács-Kiskun,Dél-Alföld,2,743
Gemenci delta,46.321541,18.900318,Bács-Kiskun,Dél-Alföld,2,744
Gencsapáti alsó,47.2858877,16.6000297,Győr-Moson-Sopron,Nyugat-Dunántúl,4,745
Gencsapáti felső,47.2995179,16.5937904,Győr-Moson-Sopron,Nyugat-Dunántúl,4,746
Gic-Hathalom,47.4280763,17.7477919,Komárom-Esztergom,Közép-Dunántúl,3,747
Gilányi,48.1412421,21.6683695,Szabolcs-Szatmár-Bereg,Észak-Alföld,1,748
Gitár utca,47.4870496,19.1530125,Budapest,Budapest,6,749
Glattfelder Gyula tér,46.2567523,20.1561506,Bács-Kiskun,Dél-Alföld,2,750
Godisa,46.2231846,18.1046335,Baranya,Dél-Dunántúl,5,751
Godóvár,48.0000675,18.9004491,Nógrád,Észak-Magyarország,0,752
Golgota tér,47.4854984,19.0928887,Budapest,Budapest,6,753
Golop,48.2424836,21.2047162,Borsod-Abaúj-Zemplén,Észak-Magyarország,0,754
Gubacsi út / Határ út,47.4442989,19.0965102,Budapest,Budapest,6,755
Gutorfölde,46.6469122,16.7397344,Zala,Nyugat-Dunántúl,4,756
Gyenesdiás,46.7633739,17.2923377,Veszprém,Közép-Dunántúl,3,757
Gyoma,46.9247637,20.8224339,Hajdú-Bihar,Észak-Alföld,1,758
Gyopárosfürdő,46.5677781,20.6306625,Békés,Dél-Alföld,2,759
Gyula,46.6564034,21.2736021,Békés,Dél-Alföld,2,760
Gyula utca,48.102887,20.743834,Borsod-Abaúj-Zemplén,Észak-Magyarország,0,761
Gyulai városerdő,46.6948737,21.3228311,Békés,Dél-Alföld,2,762
Gyál,47.3760289,19.220037,Budapest,Budapest,6,763
Gyál felső,47.3894526,19.2056426,Budapest,Budapest,6,764
Gyékényes,46.2491641,16.9560134,Zala,Nyugat-Dunántúl,4,765
Gyékényes-Kavicsbánya,46.2504323,16.9766731,Zala,Nyugat-Dunántúl,4,766
Gyón,47.1799028,19.3529464,Pest,Pest,7,767
Gyóta-Busvár,46.4931119,17.4420945,Baranya,Dél-Dunántúl,5,768
Gyömrő,47.4295289,19.3947055,Pest,Pest,7,769
Gyömöre,47.4851273,17.5588677,Komárom-Esztergom,Közép-Dunántúl,3,770
Gyömöre-Tét,47.5016159,17.5594954,Komárom-Esztergom,Közép-Dunántúl,3,771
Gyöngyfa-Magyarmecske,45.9831245,17.9568334,Baranya,Dél-Dunántúl,5,772
Gyöngyös,47.7831146,19.9372173,Heves,Észak-Magyarország,0,773
Gyöngyösfalu,47.3163696,16.5886056,Győr-Moson-Sopron,Nyugat-Dunántúl,4,774
Gyöngyöshalász,47.7441524,19.9324072,Heves,Észak-Magyarország,0,775
Gyöngyöshermán,47.2031655,16.6568606,Győr-Moson-Sopron,Nyugat-Dunántúl,4,776
Gyöngyösi utca,47.548538,19.0731257,Budapest,Budapest,6,777
Gyöngyösoldal,46.2554327,18.8522911,Bács-Kiskun,Dél-Alföld,2,778
Gyöngyössolymos,47.8284218,19.9271527,Heves,Észak-Magyarország,0,779
Gyüre,48.1717818,22.2691341,Szabolcs-Szatmár-Bereg,Észak-Alföld,1,780
Győr,47.6820845,17.6348269,Komárom-Esztergom,Közép-Dunántúl,3,781
Győr forgalmi iroda,47.6823402,17.634937999999998,Komárom-Esztergom,Közép-Dunántúl,3,782
Győr-GYSEV,47.6703237,17.6319168,Komárom-Esztergom,Közép-Dunántúl,3,783
Győr-GYSEV nyugati elágazás,47.6769243,17.6218296,Komárom-Esztergom,Közép-Dunántúl,3,784
Győr-Gyárváros,47.6845403,17.6638621,Komárom-Esztergom,Közép-Dunántúl,3,785
Győr-Rendező,47.6851727,17.6498307,Komárom-Esztergom,Közép-Dunántúl,3,786
Győr-Rendező forgalmi iroda,47.6857435,17.6451283,Komárom-Esztergom,Közép-Dunántúl,3,787
Győrasszonyfa,47.4941564,17.7988774,Komárom-Esztergom,Közép-Dunántúl,3,788
Győrszabadhegy,47.6631158,17.6480807,Komárom-Esztergom,Közép-Dunántúl,3,789
Győrszabadhegy elágazás,47.680785,17.668069,Komárom-Esztergom,Közép-Dunántúl,3,790
Győrszemere,47.5679825,17.5849431,Komárom-Esztergom,Közép-Dunántúl,3,791
Győrszentiván,47.6882237,17.7432122,Komárom-Esztergom,Közép-Dunántúl,3,792
Győrszentiván elágazás,47.6841598,17.67665,Komárom-Esztergom,Közép-Dunántúl,3,793
Győrszentiván forgalmi iroda,47.6888643,17.7459402,Komárom-Esztergom,Közép-Dunántúl,3,794
Győrtelek,47.9367226,22.4248598,Szabolcs-Szatmár-Bereg,Észak-Alföld,1,795
Győrtelek alsó,47.9210689,22.443289,Szabolcs-Szatmár-Bereg,Észak-Alföld,1,796
Győrvár,46.9896783,16.841872,Vas,Nyugat-Dunántúl,4,797
Gádoros,46.656647,20.5883057,Békés,Dél-Alföld,2,798
Gárdony,47.2061264,18.6246708,Fejér,Közép-Dunántúl,3,799
Gárdonyi tér,47.4805646,19.0519045,Budapest,Budapest,6,800
Gátér,46.6850166,19.9624042,Bács-Kiskun,Dél-Alföld,2,801
Gávavencsellő,48.1687873,21.5752039,Szabolcs-Szatmár-Bereg,Észak-Alföld,1,802
Gávavencsellő alsó,48.1691412,21.5604544,Szabolcs-Szatmár-Bereg,Észak-Alföld,1,803
Gázgyári delta,47.5649242,19.0544102,Budapest,Budapest,6,804
Gázolajkút,47.4670839,19.0896299,Budapest,Budapest,6,805
Gégény,48.1283333,21.9519444,Szabolcs-Szatmár-Bereg,Észak-Alföld,1,806
Géza fejedelem tér,47.5684001,19.1181766,Budapest,Budapest,6,807
Gógánfa,47.0209554,17.207714,Veszprém,Közép-Dunántúl,3,808
Göd,47.6871003,19.1375383,Pest,Pest,7,809
Gödöllő,47.5925365,19.3585805,Pest,Pest,7,810
"Gödöllő, Erzsébet park",47.5949389,19.340124,Pest,Pest,7,811
"Gödöllő, Palotakert",47.5984103,19.3566423,Pest,Pest,7,812
"Gödöllő, Szabadság tér",47.5974431,19.3475444,Pest,Pest,7,813
Gödöllő-Állami telepek,47.5640899,19.375703,Pest,Pest,7,814
Gönc,48.4704529,21.2614739,Borsod-Abaúj-Zemplén,Észak-Magyarország,0,815
Göncruszka,48.4455261,21.2472404,Borsod-Abaúj-Zemplén,Észak-Magyarország,0,816
Göncz Árpád városközpont,47.5320885,19.0664756,Budapest,Budapest,6,817
Göncz Árpád városközpont M,47.5329813,19.0661038,Budapest,Budapest,6,818
Gönyű,47.7305055,17.7681785,Komárom-Esztergom,Közép-Dunántúl,3,819
Görbemajor,46.8100482,19.5917097,Bács-Kiskun,Dél-Alföld,2,820
Görgey utca,47.5532225,21.6106921,Hajdú-Bihar,Észak-Alföld,1,821
Görögszállás,48.0398346,21.5552112,Szabolcs-Szatmár-Bereg,Észak-Alföld,1,822
Hajdúbagos,47.4028944,21.6625496,Hajdú-Bihar,Észak-Alföld,1,823
Hajdúböszörmény,47.6686016,21.5240462,Hajdú-Bihar,Észak-Alföld,1,824
Hajdúdorog,47.805295,21.4930452,Borsod-Abaúj-Zemplén,Észak-Magyarország,0,825
Hajdúhadház,47.6872146,21.6796531,Hajdú-Bihar,Észak-Alföld,1,826
Hajdúnánás,47.8318111,21.427473,Borsod-Abaúj-Zemplén,Észak-Magyarország,0,827
Hajdúnánás 462/463. sz. ipvk.,47.8544615,21.4033003,Borsod-Abaúj-Zemplén,Észak-Magyarország,0,828
Hajdúnánás-Vásártér,47.8426578,21.407505,Borsod-Abaúj-Zemplén,Észak-Magyarország,0,829
Hajdúszentgyörgy,47.6081601,21.5784156,Hajdú-Bihar,Észak-Alföld,1,830
Hajdúszoboszló,47.4292635,21.4071691,Hajdú-Bihar,Észak-Alföld,1,831
Hajdúsámson,47.6081095,21.7549577,Hajdú-Bihar,Észak-Alföld,1,832
Hajdúvid,47.748555,21.5082121,Hajdú-Bihar,Észak-Alföld,1,833
Hajmáskér,47.1409977,18.0090856,Fejér,Közép-Dunántúl,3,834
Hajmáskér-Újtelep,47.1477348,18.0392465,Fejér,Közép-Dunántúl,3,835
Hajnalos,47.9988668,21.4145262,Borsod-Abaúj-Zemplén,Észak-Magyarország,0,836
Halipuszta,47.5202544,17.5604697,Komárom-Esztergom,Közép-Dunántúl,3,837
Haller utca / Mester utca,47.4760923,19.0768865,Budapest,Budapest,6,838
Haller utca / Soroksári út,47.4740146,19.0706697,Budapest,Budapest,6,839
Halmaj,48.2463354,20.991338,Borsod-Abaúj-Zemplén,Észak-Magyarország,0,840
Halom utca,47.4901589,19.1285778,Budapest,Budapest,6,841
Haláp,47.5215734,21.8188665,Hajdú-Bihar,Észak-Alföld,1,842
Haláperdő,47.5480305,21.8175926,Hajdú-Bihar,Észak-Alföld,1,843
Halász utca,47.5018618,19.0399959,Budapest,Budapest,6,844
Halászlak,46.91169,20.5623348,Jász-Nagykun-Szolnok,Észak-Alföld,1,845
Hanság-Nagyerdő,47.7411289,17.1891171,Veszprém,Közép-Dunántúl,3,846
Hanságliget,47.720068,17.2155945,Veszprém,Közép-Dunántúl,3,847
Harangláb,47.6913019,19.051393,Pest,Pest,7,848
Haraszti elágazás,46.5384811,16.8067479,Zala,Nyugat-Dunántúl,4,849
Haris,46.9646548,16.2826416,Vas,Nyugat-Dunántúl,4,850
Harka,47.6415845,16.6190777,Győr-Moson-Sopron,Nyugat-Dunántúl,4,851
Harkakötöny,46.4585444,19.6019963,Bács-Kiskun,Dél-Alföld,2,852
Harkakötöny elágazás,46.4297161,19.5111015,Bács-Kiskun,Dél-Alföld,2,853
Harkány,45.8547356,18.2246913,Baranya,Dél-Dunántúl,5,854
Harminckettesek tere,47.4903674,19.0707952,Budapest,Budapest,6,855
Harta,46.6955102,19.0410552,Bács-Kiskun,Dél-Alföld,2,856
Hatmajor forgalmi kitérő,47.1612783,16.6965598,Vas,Nyugat-Dunántúl,4,857
Hatvan,47.6631262,19.6712326,Pest,Pest,7,858
Hatvan A elágazás,47.6370776,19.636899,Pest,Pest,7,859
Hatvan B elágazás,47.6469434,19.6550587,Pest,Pest,7,860
Hatvan C elágazás,47.6416265,19.6588862,Pest,Pest,7,861
Hatvan D elágazás,47.6427172,19.6847454,Pest,Pest,7,862
Hatvan-Rendező,47.6514512,19.6628377,Pest,Pest,7,863
Határ út,47.4656575,19.126615,Budapest,Budapest,6,864
Határ út M,47.4651364,19.1272752,Budapest,Budapest,6,865
"Határ út, fordítóvágány",47.4653115,19.1288947,Budapest,Budapest,6,866
Határcsárda,46.7807893,19.5319812,Bács-Kiskun,Dél-Alföld,2,867
Hauszmann Alajos utca,47.4670123,19.0438853,Budapest,Budapest,6,868
Hauszmann Alajos utca / Szerémi út,47.4665602,19.049538,Budapest,Budapest,6,869
Hegyeshalom,47.9136287,17.1461248,Győr-Moson-Sopron,Nyugat-Dunántúl,4,870
Hegyeshalom forgalmi iroda,47.9136613,17.1475938,Győr-Moson-Sopron,Nyugat-Dunántúl,4,871
Hegyfalu,47.3580051,16.8987723,Győr-Moson-Sopron,Nyugat-Dunántúl,4,872
Heinrich István utca,47.539421,18.9704418,Budapest,Budapest,6,873
Hejce-Vilmány,48.4190167,21.2454745,Borsod-Abaúj-Zemplén,Észak-Magyarország,0,874
Hejőcsabai Cementművek,48.0711478,20.7993141,Borsod-Abaúj-Zemplén,Észak-Magyarország,0,875
Hejőkeresztúr,47.9603727,20.8692726,Borsod-Abaúj-Zemplén,Észak-Magyarország,0,876
Helvécia,46.8558648,19.6161013,Bács-Kiskun,Dél-Alföld,2,877
Hengermalom út / Szerémi út,47.4620694,19.0482701,Budapest,Budapest,6,878
Hentes utca,47.462301,19.0846057,Budapest,Budapest,6,879
Herceghalom,47.4937443,18.743619,Komárom-Esztergom,Közép-Dunántúl,3,880
Herceghalom forgalmi iroda,47.4940074,18.7432124,Komárom-Esztergom,Közép-Dunántúl,3,881
Herend,47.1367731,17.7604405,Veszprém,Közép-Dunántúl,3,882
Herminatanya,48.1157874,21.6568236,Szabolcs-Szatmár-Bereg,Észak-Alföld,1,883
Hernád,47.1611319,19.4025021,Pest,Pest,7,884
Hernádnémeti-Bőcs,48.0514633,20.985073,Borsod-Abaúj-Zemplén,Észak-Magyarország,0,885
Hernádszurdok,48.4876605,21.2141796,Borsod-Abaúj-Zemplén,Észak-Magyarország,0,886
Hetvehely,46.1282675,18.045089,Baranya,Dél-Dunántúl,5,887
Hetényegyháza,46.9308431,19.5949092,Bács-Kiskun,Dél-Alföld,2,888
Heves,47.6092311,20.3062908,Heves,Észak-Magyarország,0,889
Hevesvezekény,47.5617873,20.3663104,Heves,Észak-Magyarország,0,890
Hidas-Bonyhád,46.2692323,18.5230981,Baranya,Dél-Dunántúl,5,891
Hidasnémeti,48.5088735,21.2301362,Borsod-Abaúj-Zemplén,Észak-Magyarország,0,892
Hidegkuti Nándor Stadion,47.4900952,19.1081919,Budapest,Budapest,6,893
Hodász,47.8961667,22.2137991,Szabolcs-Szatmár-Bereg,Észak-Alföld,1,894
Homok,46.9457898,20.2696141,Jász-Nagykun-Szolnok,Észak-Alföld,1,895
Homokterenye,48.0253332,19.9572667,Heves,Észak-Magyarország,0,896
Honvéd utca,47.434728,19.2019418,Budapest,Budapest,6,897
Honvédkórház,47.5300597,19.0706795,Budapest,Budapest,6,898
Horgásztanyák,47.2141372,18.9531632,Fejér,Közép-Dunántúl,3,899
Hort-Csány,47.6723471,19.7975274,Heves,Észak-Magyarország,0,900
Hortobágy,47.5860986,21.1544518,Hajdú-Bihar,Észak-Alföld,1,901
Hortobágy-Halastó,47.6053649,21.0695718,Hajdú-Bihar,Észak-Alföld,1,902
Hortobágyi Halastó,47.6039381,21.0741496,Hajdú-Bihar,Észak-Alföld,1,903
Horvátnádalja,47.0056674,16.5457691,Vas,Nyugat-Dunántúl,4,904
Hosszúberek-Péteri,47.3704258,19.3898894,Pest,Pest,7,905
Hosszúhetény,46.1350941,18.3662555,Baranya,Dél-Dunántúl,5,906
Hosszúhát,47.2355937,21.101909,Hajdú-Bihar,Észak-Alföld,1,907
Hosszúpályi,47.3994094,21.7292278,Hajdú-Bihar,Észak-Alföld,1,908
Hosszúrét,46.6046788,16.7144351,Zala,Nyugat-Dunántúl,4,909
Hugyag,48.0829723,19.4235998,Nógrád,Észak-Magyarország,0,910
Hun utca,47.5239851,19.074921,Budapest,Budapest,6,911
Hungária kocsiszín (kapu),47.4913891,19.1051406,Budapest,Budapest,6,912
Hungária út (Rendőrség),47.455981,19.1380045,Budapest,Budapest,6,913
Hármashegyalja,47.5576248,21.8345537,Hajdú-Bihar,Észak-Alföld,1,914
Hármashegyi-tó,47.5525316,21.831029,Hajdú-Bihar,Észak-Alföld,1,915
Háros,47.4117081,19.0336707,Budapest,Budapest,6,916
Hárshegy,47.5354941,18.9611318,Budapest,Budapest,6,917
Hártókút,47.8505742,19.0202694,Nógrád,Észak-Magyarország,0,918
Hékéd,46.6750597,20.2669194,Bács-Kiskun,Dél-Alföld,2,919
Hétvezér utca,47.5297954,21.6591394,Hajdú-Bihar,Észak-Alföld,1,920
Hévízgyörk,47.6388288,19.5262202,Pest,Pest,7,921
Hídvégardó,48.5792545,20.8490113,Borsod-Abaúj-Zemplén,Észak-Magyarország,0,922
Hódmezővásárhely,46.4134792,20.3401153,Csongrád-Csanád,Dél-Alföld,2,923
Hódmezővásárhely vasútállomás,46.4132358,20.3388218,Csongrád-Csanád,Dél-Alföld,2,924
Hódmezővásárhely-CSOMIÉP iparvágány kiágazás,46.4090985,20.3602864,Csongrád-Csanád,Dél-Alföld,2,925
Hódmezővásárhely-SZANIT iparvágány kiágazás,46.4140558,20.3562565,Csongrád-Csanád,Dél-Alföld,2,926
Hódmezővásárhelyi Népkert,46.4029395,20.3116306,Csongrád-Csanád,Dél-Alföld,2,927
Hódmezővásárhelyi Népkert vasútállomás,46.4036952,20.3129743,Csongrád-Csanád,Dél-Alföld,2,928
Hős utca,47.4958347,19.1090382,Budapest,Budapest,6,929
Hősök tere,47.5141673,19.0766684,Budapest,Budapest,6,930
Hűvösvölgy,47.5409044,18.963856,Budapest,Budapest,6,931
II. János Pál pápa tér,47.4960998,19.077771,Budapest,Budapest,6,932
II. János Pál pápa tér M,47.4946709,19.0775933,Budapest,Budapest,6,933
II. Kórház,46.2535432,20.1260638,Bács-Kiskun,Dél-Alföld,2,934
Ibrány,48.1276254,21.7120093,Szabolcs-Szatmár-Bereg,Észak-Alföld,1,935
Ifjúsági tábor,47.9296444,18.8407047,Nógrád,Észak-Magyarország,0,936
Iklad-Domony,47.658135,19.4444234,Pest,Pest,7,937
Iklad-Domony felső,47.6677038,19.4283771,Pest,Pest,7,938
Iklódbördőce,46.6031322,16.6038335,Zala,Nyugat-Dunántúl,4,939
Iklódbördőcei temető,46.6114706,16.6247816,Zala,Nyugat-Dunántúl,4,940
Ikrény,47.6576539,17.5233326,Komárom-Esztergom,Közép-Dunántúl,3,941
Illatos út,47.4536401,19.0912345,Budapest,Budapest,6,942
Ilonatelep,47.5263107,19.2289656,Budapest,Budapest,6,943
Imremajor,46.6803945,17.4997838,Veszprém,Közép-Dunántúl,3,944
Infopark,47.4692119,19.0597545,Budapest,Budapest,6,945
Inota,47.1973638,18.1711328,Fejér,Közép-Dunántúl,3,946
Inota-Gyártelep,47.2039859,18.2183259,Fejér,Közép-Dunántúl,3,947
Ináncs,48.2892861,21.0536669,Borsod-Abaúj-Zemplén,Észak-Magyarország,0,948
Inárcs-Kakucs,47.2470059,19.317831,Pest,Pest,7,949
Iparvasút,47.4364118,19.1970122,Budapest,Budapest,6,950
Ipolyszög,48.0546262,19.2234772,Nógrád,Észak-Magyarország,0,951
Ipolytarnóc,48.2366662,19.6291661,Nógrád,Észak-Magyarország,0,952
Ipolytarnóc forgalmi iroda,48.2365627,19.6289863,Nógrád,Észak-Magyarország,0,953
Ipolyvece,48.0575359,19.1068807,Nógrád,Észak-Magyarország,0,954
Isaszeg,47.5378901,19.3886934,Pest,Pest,7,955
Istvántelek,47.5495823,19.1059652,Budapest,Budapest,6,956
Istvántelki Főműhely,47.5488098,19.1022839,Budapest,Budapest,6,957
Istvántelki Óműhely,47.5471606,19.1045219,Budapest,Budapest,6,958
Ivacs,47.641749,19.27393,Pest,Pest,7,959
Iváncsa,47.1771845,18.8114857,Fejér,Közép-Dunántúl,3,960
Iváncsa forgalmi kitérő,47.1801317,18.8142993,Fejér,Közép-Dunántúl,3,961
Izraelita temető,47.4791862,19.1778502,Budapest,Budapest,6,962
Izsák,46.811761,19.3414941,Bács-Kiskun,Dél-Alföld,2,963
Izsófalva,48.3107206,20.6519724,Borsod-Abaúj-Zemplén,Észak-Magyarország,0,964
Jakabszállás,46.766117,19.6043519,Bács-Kiskun,Dél-Alföld,2,965
Jeszenák János utca,47.5117911,19.1252404,Budapest,Budapest,6,966
Jobbágyi,47.8291273,19.6875485,Nógrád,Észak-Magyarország,0,967
Justhmajor,46.6197366,20.616226,Békés,Dél-Alföld,2,968
Ják-Balogunyom,47.1613062,16.6302597,Vas,Nyugat-Dunántúl,4,969
Jákó-Nagybajom,46.3446654,17.5551478,Baranya,Dél-Dunántúl,5,970
Jámborka,46.1905581,17.8998828,Baranya,Dél-Dunántúl,5,971
Jánkmajtis,47.9421263,22.6568717,Szabolcs-Szatmár-Bereg,Észak-Alföld,1,972
János tér,47.44175,19.1025791,Budapest,Budapest,6,973
Jánoshalma,46.292901,19.3307258,Bács-Kiskun,Dél-Alföld,2,974
Jánoshalma-KEFAG iparvágány kiágazás,46.3009084,19.3516865,Bács-Kiskun,Dél-Alföld,2,975
Jánoshegy,47.5148926,18.9508991,Budapest,Budapest,6,976
Jánosháza,47.1154602,17.1716421,Veszprém,Közép-Dunántúl,3,977
Jánosháza elágazás,47.16088,17.188834,Veszprém,Közép-Dunántúl,3,978
Jánoska,47.8086078,19.933384,Heves,Észak-Magyarország,0,979
Jánossomorja,47.7890546,17.1376322,Veszprém,Közép-Dunántúl,3,980
Jánosszállás,46.3343471,20.0511861,Bács-Kiskun,Dél-Alföld,2,981
Járműtelep utca,47.5821655,19.1169339,Budapest,Budapest,6,982
Jászai Mari tér,47.5127089,19.0477879,Budapest,Budapest,6,983
Jászapáti,47.5135712,20.1553052,Heves,Észak-Magyarország,0,984
Jászapáti TIG iparvágány kiágazás,47.4869937,20.1825191,Heves,Észak-Magyarország,0,985
Jászberény,47.4945996,19.893267,Heves,Észak-Magyarország,0,986
Jászberényi út / Maglódi út,47.4901173,19.1489759,Budapest,Budapest,6,987
Jászboldogháza-Jánoshida,47.3673825,20.0010277,Heves,Észak-Magyarország,0,988
Jászdózsa,47.5628323,20.0282562,Heves,Észak-Magyarország,0,989
Jászfényszaru,47.5933316,19.7538494,Heves,Észak-Magyarország,0,990
Jászkisér,47.4560088,20.2036094,Heves,Észak-Magyarország,0,991
Jászkisér felső,47.4381116,20.2026078,Heves,Észak-Magyarország,0,992
Jászladány,47.3728858,20.1586289,Heves,Észak-Magyarország,0,993
Jászszentlászló,46.5659223,19.7534531,Bács-Kiskun,Dél-Alföld,2,994
Jászárokszállás,47.6359779,19.970087,Heves,Észak-Magyarország,0,995
Játszótér,46.9369151,20.1149308,Jász-Nagykun-Szolnok,Észak-Alföld,1,996
Jókai Mór utca / Határ út,47.4490026,19.1045369,Budapest,Budapest,6,997
Jósvafő-Aggtelek,48.4897289,20.6938723,Borsod-Abaúj-Zemplén,Észak-Magyarország,0,998
Józsa,47.6006776,21.5844882,Hajdú-Bihar,Észak-Alföld,1,999
József Attila-telep,47.337079,19.0342059,Fejér,Közép-Dunántúl,3,1000
József Szanatórium,46.7046041,21.3328423,Békés,Dél-Alföld,2,1001
K20,47.1777318,20.1718203,Jász-Nagykun-Szolnok,Észak-Alföld,1,1002
K21,47.1777624,20.1717313,Jász-Nagykun-Szolnok,Észak-Alföld,1,1003
K22,47.1777315,20.1716426,Jász-Nagykun-Szolnok,Észak-Alföld,1,1004
K23,47.1776259,20.171513,Jász-Nagykun-Szolnok,Észak-Alföld,1,1005
K24,47.1775639,20.1714193,Jász-Nagykun-Szolnok,Észak-Alföld,1,1006
Kaba,47.3689609,21.2595445,Hajdú-Bihar,Észak-Alföld,1,1007
Kacsóh Pongrác út,47.5186671,19.0885636,Budapest,Budapest,6,1008
Kada utca / Maglódi út,47.4827151,19.1587417,Budapest,Budapest,6,1009
Kajdacs,46.58906,18.6503625,Bács-Kiskun,Dél-Alföld,2,1010
Kakasszék,46.5307229,20.5937855,Békés,Dél-Alföld,2,1011
Kalocsa,46.5348238,18.9947391,Bács-Kiskun,Dél-Alföld,2,1012
Kalocsa Baráka-Foktő (III/1) pályavasúti határpont,46.5364832,18.9506717,Bács-Kiskun,Dél-Alföld,2,1013
Kalotaszeg utca,47.4588077,19.0409305,Budapest,Budapest,6,1014
Kamaraerdei Ifjúsági Park,47.4411573,18.9794982,Budapest,Budapest,6,1015
Kapitányság,46.4353414,19.9876395,Bács-Kiskun,Dél-Alföld,2,1016
Kapoly,46.7136049,17.9780183,Veszprém,Közép-Dunántúl,3,1017
Kaposfüred,46.4143359,17.7590937,Baranya,Dél-Dunántúl,5,1018
Kaposfő,46.3641652,17.6605483,Baranya,Dél-Dunántúl,5,1019
Kaposhomok,46.3673466,17.9217543,Baranya,Dél-Dunántúl,5,1020
Kaposmérő,46.3654936,17.6994925,Baranya,Dél-Dunántúl,5,1021
Kapospula,46.3730345,18.097022,Baranya,Dél-Dunántúl,5,1022
Kaposszekcső,46.330946,18.1430718,Baranya,Dél-Dunántúl,5,1023
Kaposszentjakab,46.3567788,17.8203512,Baranya,Dél-Dunántúl,5,1024
Kapostüskevár,46.3658682,17.7739164,Baranya,Dél-Dunántúl,5,1025
Kaposvár,46.3526761,17.7948926,Baranya,Dél-Dunántúl,5,1026
Kaposvár elágazás,46.3605021,17.8277765,Baranya,Dél-Dunántúl,5,1027
Kaposvár-Fonóipari iparvágány kiágazás,46.3801209,17.7714534,Baranya,Dél-Dunántúl,5,1028
Kaposújlak,46.3669732,17.7240214,Baranya,Dél-Dunántúl,5,1029
Kapuvár,47.5819518,17.0478296,Veszprém,Közép-Dunántúl,3,1030
Karakószörcsök,47.1335213,17.2878083,Veszprém,Közép-Dunántúl,3,1031
Karcag,47.3036743,20.9298823,Hajdú-Bihar,Észak-Alföld,1,1032
Karcag-HAGE iparvágány kiágazás,47.3345046,20.8942218,Hajdú-Bihar,Észak-Alföld,1,1033
Karcag-Ipartelep,47.3374969,20.8895542,Hajdú-Bihar,Észak-Alföld,1,1034
Karcag-Vásártér,47.321967,20.9070042,Hajdú-Bihar,Észak-Alföld,1,1035
Karcag-Örlőmalom iparvágány-kiágazás,47.306579,20.90946,Hajdú-Bihar,Észak-Alföld,1,1036
Kardoskút,46.4982519,20.6976859,Békés,Dél-Alföld,2,1037
Karolina út,47.4728639,19.0336819,Budapest,Budapest,6,1038
Kartács utca,47.5569835,21.6129565,Hajdú-Bihar,Észak-Alföld,1,1039
Karucás-kitérő,47.9144025,18.8757368,Nógrád,Észak-Magyarország,0,1040
Karácsond,47.7169139,20.0442249,Heves,Észak-Magyarország,0,1041
Karácsony Sándor utca,47.4269169,19.0672924,Budapest,Budapest,6,1042
Karád,46.6811497,17.8750194,Veszprém,Közép-Dunántúl,3,1043
Kaskantyú,46.6707767,19.3898668,Bács-Kiskun,Dél-Alföld,2,1044
Kaskantyúi tanyák,46.6825093,19.4082106,Bács-Kiskun,Dél-Alföld,2,1045
Kastély (Nagycenk),47.6108943,16.7054434,Győr-Moson-Sopron,Nyugat-Dunántúl,4,1046
Kastélyosdombó,45.9612901,17.6195841,Baranya,Dél-Dunántúl,5,1047
Kastélypark,47.3910759,18.9908729,Budapest,Budapest,6,1048
Kaszásdűlő,47.5564687,19.0450949,Budapest,Budapest,6,1049
Kaszó,46.3172863,17.2204114,Zala,Nyugat-Dunántúl,4,1050
Katinyi mártírok parkja,47.5326068,19.0365018,Budapest,Budapest,6,1051
Katonatelep,46.9631376,19.7188763,Bács-Kiskun,Dél-Alföld,2,1052
Kavicsbánya elágazás,47.533473,19.2401054,Budapest,Budapest,6,1053
Kavicsváltó kitérő,48.4303305,21.4505207,Borsod-Abaúj-Zemplén,Észak-Magyarország,0,1054
Kazincbarcika,48.2642774,20.6285505,Borsod-Abaúj-Zemplén,Észak-Magyarország,0,1055
Kazincbarcika alsó,48.2551743,20.6492657,Borsod-Abaúj-Zemplén,Észak-Magyarország,0,1056
Kecel,46.5524628,19.2418175,Bács-Kiskun,Dél-Alföld,2,1057
Kecel-Szilos,46.5219128,19.1945906,Bács-Kiskun,Dél-Alföld,2,1058
Kecskemét,46.9138548,19.7008031,Bács-Kiskun,Dél-Alföld,2,1059
Kecskemét KK,46.8927194,19.6857458,Bács-Kiskun,Dél-Alföld,2,1060
Kecskemét Kohári iparvágány kiágazás,46.8949513,19.7314085,Bács-Kiskun,Dél-Alföld,2,1061
Kecskemét alsó,46.8954535,19.6914718,Bács-Kiskun,Dél-Alföld,2,1062
Kecskemét alsó ipartelepek ipvk. pvh.,46.892849,19.677576,Bács-Kiskun,Dél-Alföld,2,1063
Kecskemét-Mercedes iparvágány,46.8585542,19.7102459,Bács-Kiskun,Dél-Alföld,2,1064
Kecskemét-Mercedes iparvágány kiágazás,46.856611,19.735442,Bács-Kiskun,Dél-Alföld,2,1065
Kecskemét-Mercedes pályavasúti határpont,46.8532337,19.7289962,Bács-Kiskun,Dél-Alföld,2,1066
Kecskemét-Máriaváros,46.9011999,19.6758376,Bács-Kiskun,Dél-Alföld,2,1067
Kecskemét-Toldi ipvk. pvh.,46.881811,19.651792,Bács-Kiskun,Dél-Alföld,2,1068
Kecskeméti utca,46.2646165,20.1574877,Bács-Kiskun,Dél-Alföld,2,1069
Kecskéd,47.5300288,18.2983752,Komárom-Esztergom,Közép-Dunántúl,3,1070
Kecskéd alsó,47.5203996,18.3168703,Komárom-Esztergom,Közép-Dunántúl,3,1071
Kecskés,46.2394965,20.1176906,Bács-Kiskun,Dél-Alföld,2,1072
Kelebia,46.1948037,19.6102549,Bács-Kiskun,Dél-Alföld,2,1073
Kelemen László utca,47.5219673,18.9902993,Budapest,Budapest,6,1074
Kelenföld vasútállomás,47.4644092,19.0198556,Budapest,Budapest,6,1075
Kelenföld vasútállomás M,47.46602,19.0219865,Budapest,Budapest,6,1076
Kelenvölgy-Péterhegy,47.4435578,19.0120583,Budapest,Budapest,6,1077
Keleti pályaudvar,47.4996808,19.0815544,Budapest,Budapest,6,1078
Keleti pályaudvar M,47.4992272,19.0825912,Budapest,Budapest,6,1079
Kemecse,48.0653119,21.8018833,Szabolcs-Szatmár-Bereg,Észak-Alföld,1,1080
Kemence,48.0132792,18.8941157,Nógrád,Észak-Magyarország,0,1081
Kemencepatak,48.4475082,21.4628811,Borsod-Abaúj-Zemplén,Észak-Magyarország,0,1082
Kemendollár,46.9056856,16.9467343,Vas,Nyugat-Dunántúl,4,1083
Kemenesmihályfa,47.2789669,17.1090818,Veszprém,Közép-Dunántúl,3,1084
Kemenespálfa,47.1391719,17.1828723,Veszprém,Közép-Dunántúl,3,1085
Kemény Zsigmond utca,47.4458494,19.1722711,Budapest,Budapest,6,1086
Kenderes,47.2545077,20.6863237,Hajdú-Bihar,Észak-Alföld,1,1087
Kengyel,47.0898142,20.3398687,Jász-Nagykun-Szolnok,Észak-Alföld,1,1088
Kerekdomb,46.9023793,20.0462323,Jász-Nagykun-Szolnok,Észak-Alföld,1,1089
Kerekegyháza,46.852567,19.5182984,Bács-Kiskun,Dél-Alföld,2,1090
Kerepes,47.5527591,19.2704087,Budapest,Budapest,6,1091
Kereskedő köz,46.2614552,20.1082606,Bács-Kiskun,Dél-Alföld,2,1092
Kerta,47.1514242,17.238666,Veszprém,Közép-Dunántúl,3,1093
Kerta elágazás,47.165869,17.206289,Veszprém,Közép-Dunántúl,3,1094
Kerékgyártó utca,47.521289,19.1062115,Budapest,Budapest,6,1095
Keselyűs,46.3295565,18.8520316,Bács-Kiskun,Dél-Alföld,2,1096
Keszthely,46.7579159,17.2474814,Veszprém,Közép-Dunántúl,3,1097
Keszthely forgalmi iroda,46.758051,17.2473908,Veszprém,Közép-Dunántúl,3,1098
Keszőhidegkút-Gyönk,46.5972651,18.4264288,Baranya,Dél-Dunántúl,5,1099
Kettőshalom,46.6890478,20.0210413,Bács-Kiskun,Dél-Alföld,2,1100
Kikerics,46.2014612,17.8960655,Baranya,Dél-Dunántúl,5,1101
Kilimán,46.6364881,16.9839719,Zala,Nyugat-Dunántúl,4,1102
Kilátó,46.9355693,20.1108126,Jász-Nagykun-Szolnok,Észak-Alföld,1,1103
Kimle-Károlyháza,47.8035911,17.3431017,Győr-Moson-Sopron,Nyugat-Dunántúl,4,1104
Kimle-Károlyháza forgalmi iroda,47.8045188,17.3420343,Győr-Moson-Sopron,Nyugat-Dunántúl,4,1105
Királd,48.2442576,20.3801281,Borsod-Abaúj-Zemplén,Észak-Magyarország,0,1106
Király utca / Erzsébet körút,47.5032834,19.0657909,Budapest,Budapest,6,1107
Királyegyháza Cementgyár iparvágány kiágazás,46.0187386,17.9936501,Baranya,Dél-Dunántúl,5,1108
Királyegyháza-Rigópuszta,45.9894467,17.972329,Baranya,Dél-Dunántúl,5,1109
Királyhágó tér,47.4950192,19.0192338,Budapest,Budapest,6,1110
Királyhágó utca,47.4948389,19.0237015,Budapest,Budapest,6,1111
Királyrét,47.8939193,18.9791518,Nógrád,Észak-Magyarország,0,1112
Kis-Hárs-hegy,47.5288835,18.9666191,Budapest,Budapest,6,1113
Kisbárapáti,46.6149785,17.8669583,Veszprém,Közép-Dunántúl,3,1114
Kisbárapáti-Erdőgazdaság iparvágány kiágazás,46.6155598,17.8464152,Veszprém,Közép-Dunántúl,3,1115
Kisbér,47.4942289,18.0248372,Komárom-Esztergom,Közép-Dunántúl,3,1116
Kisbócsa,46.647924,19.3807502,Bács-Kiskun,Dél-Alföld,2,1117
Kiscsákó,46.7196072,20.7178705,Jász-Nagykun-Szolnok,Észak-Alföld,1,1118
Kiscséripuszta,47.0480412,18.3549811,Fejér,Közép-Dunántúl,3,1119
Kisdobsza,46.0120507,17.6668515,Baranya,Dél-Dunántúl,5,1120
Kisfái,46.8883046,19.8072829,Jász-Nagykun-Szolnok,Észak-Alföld,1,1121
Kisfástanya,47.9891077,21.4698631,Borsod-Abaúj-Zemplén,Észak-Magyarország,0,1122
Kishuta,48.4574198,21.4827457,Borsod-Abaúj-Zemplén,Észak-Magyarország,0,1123
Kisirtás,47.9141371,18.8777612,Nógrád,Észak-Magyarország,0,1124
Kiskapud,48.2170665,20.3463023,Borsod-Abaúj-Zemplén,Észak-Magyarország,0,1125
Kiskorpád,46.3620095,17.6077795,Baranya,Dél-Dunántúl,5,1126
Kiskundorozsma,46.271631,20.0907976,Bács-Kiskun,Dél-Alföld,2,1127
Kiskundorozsma elágazás,46.25126,20.10626,Bács-Kiskun,Dél-Alföld,2,1128
Kiskunfélegyháza,46.707084,19.8340665,Jász-Nagykun-Szolnok,Észak-Alföld,1,1129
Kiskunfélegyháza-Kunkert iparvágány kiágazás,46.7000241,19.850064,Jász-Nagykun-Szolnok,Észak-Alföld,1,1130
Kiskunfélegyháza-MVM OVIT iparvágány kiágazás,46.6991929,19.8544586,Bács-Kiskun,Dél-Alföld,2,1131
Kiskunhalas,46.4335293,19.4938774,Bács-Kiskun,Dél-Alföld,2,1132
Kiskunlacháza,47.1849642,19.0439836,Fejér,Közép-Dunántúl,3,1133
Kiskunmajsa,46.5018709,19.727735,Bács-Kiskun,Dél-Alföld,2,1134
Kiskunmajsa KK,46.5049234,19.7251969,Bács-Kiskun,Dél-Alföld,2,1135
Kisköre,47.4953079,20.481625,Heves,Észak-Magyarország,0,1136
Kisköre-Tiszahíd,47.4808555,20.5075928,Heves,Észak-Magyarország,0,1137
Kiskőrös,46.627289,19.2967993,Bács-Kiskun,Dél-Alföld,2,1138
Kiskőrös KK,46.6226874,19.2984275,Bács-Kiskun,Dél-Alföld,2,1139
Kiskőrös KÖFI,46.6260424,19.2970309,Bács-Kiskun,Dél-Alföld,2,1140
Kiskőrösi út,46.840716,19.6243707,Bács-Kiskun,Dél-Alföld,2,1141
Kismacs,47.550667,21.543644,Hajdú-Bihar,Észak-Alföld,1,1142
Kismargita,47.724003,21.108661,Hajdú-Bihar,Észak-Alföld,1,1143
Kismarja,47.2438316,21.813888,Hajdú-Bihar,Észak-Alföld,1,1144
Kismaros,47.827571,19.013343,Nógrád,Észak-Magyarország,0,1145
Kismindszenti út,46.7536068,19.887892,Jász-Nagykun-Szolnok,Észak-Alföld,1,1146
Kismuki egykori váltója,47.6209184,19.3424707,Pest,Pest,7,1147
Kisnémedi,47.7242994,19.2650391,Nógrád,Észak-Magyarország,0,1148
Kispest,47.4475657,19.1568948,Budapest,Budapest,6,1149
Kispest elágazás,47.417104,19.169252,Budapest,Budapest,6,1150
Kispest forgalmi iroda,47.4477791,19.1574544,Budapest,Budapest,6,1151
"Kispest, Tulipán utca",47.4458653,19.1523871,Budapest,Budapest,6,1152
Kispest-Gránit ipvk.,47.4371283,19.1520139,Budapest,Budapest,6,1153
Kispáhi,46.7299716,19.4030301,Bács-Kiskun,Dél-Alföld,2,1154
Kisrárós,48.2084874,19.5559536,Nógrád,Észak-Magyarország,0,1155
Kiss Ernő utca,47.5650065,19.0939849,Budapest,Budapest,6,1156
Kiss János altábornagy utca,47.4923115,19.0165135,Budapest,Budapest,6,1157
Kisszekeres,47.9660529,22.6293834,Szabolcs-Szatmár-Bereg,Észak-Alföld,1,1158
Kisszállás,46.2786664,19.5387644,Bács-Kiskun,Dél-Alföld,2,1159
Kisszénás,46.751127,20.7215233,Jász-Nagykun-Szolnok,Észak-Alföld,1,1160
Kisszénás forgalmi iroda,46.7511892,20.7217218,Jász-Nagykun-Szolnok,Észak-Alföld,1,1161
Kistarcsa,47.545953,19.2600882,Budapest,Budapest,6,1162
"Kistarcsa, kórház",47.5394096,19.2495505,Budapest,Budapest,6,1163
Kistelek,46.4671297,19.9666865,Bács-Kiskun,Dél-Alföld,2,1164
Kisteleki szőlők,46.5141859,19.928615,Bács-Kiskun,Dél-Alföld,2,1165
Kisterenye,48.0096921,19.8318221,Heves,Észak-Magyarország,0,1166
Kisterenye-Bányatelep,48.0235874,19.8307041,Heves,Észak-Magyarország,0,1167
Kisterenye-Vasötvözetgyár iparvágány kiágazás,48.0027451,19.8389561,Heves,Észak-Magyarország,0,1168
Kistolmácsi Erdei Lak,46.5029244,16.7360657,Zala,Nyugat-Dunántúl,4,1169
Kistolmácsi-tó,46.4955575,16.7424409,Zala,Nyugat-Dunántúl,4,1170
Kistótfalu,45.9092062,18.3154971,Baranya,Dél-Dunántúl,5,1171
Kistőke,46.7162851,20.2817925,Jász-Nagykun-Szolnok,Észak-Alföld,1,1172
Kisvarsány,48.1517842,22.2900892,Szabolcs-Szatmár-Bereg,Észak-Alföld,1,1173
Kisvác,47.7950348,19.1141354,Nógrád,Észak-Magyarország,0,1174
Kisvárda,48.2081531,22.0782434,Szabolcs-Szatmár-Bereg,Észak-Alföld,1,1175
Kisvárda 450/451 szelvény ipvk.,48.2306428,22.0935002,Szabolcs-Szatmár-Bereg,Észak-Alföld,1,1176
Kisvárda-Hármasút,48.2282183,22.0919329,Szabolcs-Szatmár-Bereg,Észak-Alföld,1,1177
Kiszombor,46.1921897,20.4132126,Csongrád-Csanád,Dél-Alföld,2,1178
Kiszombor megálló,46.1910074,20.43074,Csongrád-Csanád,Dél-Alföld,2,1179
Kisújszállás,47.2240021,20.7506241,Hajdú-Bihar,Észak-Alföld,1,1180
Kitérőgyár,47.7668726,19.9352556,Heves,Észak-Magyarország,0,1181
Klapka utca,47.4286784,19.1112219,Budapest,Budapest,6,1182
Klinikai Központ Nagyerdei Campus,47.5560887,21.6292396,Hajdú-Bihar,Észak-Alföld,1,1183
Klotildliget,47.6376942,18.8465307,Komárom-Esztergom,Közép-Dunántúl,3,1184
Klábertelep,47.0056671,19.5515696,Pest,Pest,7,1185
Kocka utca,47.4848844,19.1559086,Budapest,Budapest,6,1186
Kocsis Sándor Sportközpont,47.4787024,19.1234469,Budapest,Budapest,6,1187
Kocsord,47.9419262,22.3757145,Szabolcs-Szatmár-Bereg,Észak-Alföld,1,1188
Kocsord alsó,47.9462804,22.401411,Szabolcs-Szatmár-Bereg,Észak-Alföld,1,1189
Kodály körönd,47.5091902,19.069217,Budapest,Budapest,6,1190
Kolontár,47.0891441,17.476852,Veszprém,Közép-Dunántúl,3,1191
Kolosy tér,47.5277142,19.0375275,Budapest,Budapest,6,1192
Komjádi Béla utca,47.5206665,19.0367773,Budapest,Budapest,6,1193
Komjádi elágazás,47.5198693,19.0385114,Budapest,Budapest,6,1194
Komjáti,48.5461567,20.7564786,Borsod-Abaúj-Zemplén,Észak-Magyarország,0,1195
Komló,46.1891018,18.2648171,Baranya,Dél-Dunántúl,5,1196
Komlósi-völgy,48.4320033,21.4589629,Borsod-Abaúj-Zemplén,Észak-Magyarország,0,1197
Komoró,48.3049716,22.118184,Szabolcs-Szatmár-Bereg,Észak-Alföld,1,1198
Komoró (széles),48.3080243,22.1199725,Szabolcs-Szatmár-Bereg,Észak-Alföld,1,1199
Komoró-Fatároló ipvk.,48.3231459,22.1242678,Szabolcs-Szatmár-Bereg,Észak-Alföld,1,1200
Komádi,46.976032,21.4915004,Hajdú-Bihar,Észak-Alföld,1,1201
Komárom,47.7494475,18.1143781,Komárom-Esztergom,Közép-Dunántúl,3,1202
Komárom forgalmi iroda,47.7498133,18.1140091,Komárom-Esztergom,Közép-Dunántúl,3,1203
Komárom-Rendező,47.7481619,18.1257284,Komárom-Esztergom,Közép-Dunántúl,3,1204
Komárom-Rendező forgalmi iroda,47.7486475,18.1255458,Komárom-Esztergom,Közép-Dunántúl,3,1205
Kondoros,46.755618,20.79067,Jász-Nagykun-Szolnok,Észak-Alföld,1,1206
Kondoroskert,47.5255973,21.7136732,Hajdú-Bihar,Észak-Alföld,1,1207
Konrad Lorenz,47.6208838,21.0766126,Hajdú-Bihar,Észak-Alföld,1,1208
Konyár,47.3235679,21.6661558,Hajdú-Bihar,Észak-Alföld,1,1209
Konyári Sóstófürdő,47.3240679,21.7454557,Hajdú-Bihar,Észak-Alföld,1,1210
Koppány utca,47.4659715,19.0814711,Budapest,Budapest,6,1211
Kopáncs,46.3809666,20.2520292,Bács-Kiskun,Dél-Alföld,2,1212
Korlát-Vizsoly,48.3646902,21.2191573,Borsod-Abaúj-Zemplén,Észak-Magyarország,0,1213
Kossuth Lajos tér,47.5058478,19.0443567,Budapest,Budapest,6,1214
Kossuth Lajos tér (Széchenyi rakpart),47.5043969,19.0450838,Budapest,Budapest,6,1215
Kossuth Lajos tér M,47.5057241,19.046797,Budapest,Budapest,6,1216
Kossuth Lajos utca,47.4394272,19.1055514,Budapest,Budapest,6,1217
Kossuth Lajos utca / Ady Endre út,47.4500356,19.1464619,Budapest,Budapest,6,1218
Kossuth tér,47.5312539,21.6247286,Hajdú-Bihar,Észak-Alföld,1,1219
Kosztolányi Dezső tér,47.4752226,19.0401517,Budapest,Budapest,6,1220
Kovácshida,45.8373134,18.1891749,Baranya,Dél-Dunántúl,5,1221
Kovácsműhely,47.6956721,19.0434302,Pest,Pest,7,1222
Krisztina tér,47.4966115,19.0328331,Budapest,Budapest,6,1223
Kulcs,47.0510044,18.8977513,Fejér,Közép-Dunántúl,3,1224
Kunfehértó,46.3560098,19.4168407,Bács-Kiskun,Dél-Alföld,2,1225
Kungyalu,46.9084092,20.2677315,Jász-Nagykun-Szolnok,Észak-Alföld,1,1226
Kungyalu alsó,46.8832011,20.2693166,Jász-Nagykun-Szolnok,Észak-Alföld,1,1227
Kunhegyes,47.3764725,20.6409589,Heves,Észak-Magyarország,0,1228
Kunmadaras,47.4152612,20.7930998,Heves,Észak-Magyarország,0,1229
Kunmadaras-Nagymező iprvágány kiágazás,47.4096427,20.7976315,Heves,Észak-Magyarország,0,1230
Kunszentmiklós-Tass,47.0182974,19.0999095,Fejér,Közép-Dunántúl,3,1231
Kunszentmárton,46.8483521,20.293366,Jász-Nagykun-Szolnok,Észak-Alföld,1,1232
Kunszállás,46.7810305,19.7686238,Bács-Kiskun,Dél-Alföld,2,1233
Kurd,46.4503092,18.3184887,Baranya,Dél-Dunántúl,5,1234
Kutas,46.326063,17.4534094,Baranya,Dél-Dunántúl,5,1235
Kutitanya,46.6365027,19.3301771,Bács-Kiskun,Dél-Alföld,2,1236
Kutyás delta,46.5834314,20.070430000000002,Bács-Kiskun,Dél-Alföld,2,1237
Kvassay híd,47.4577124,19.0710566,Budapest,Budapest,6,1238
Kádárta,47.1260154,17.953414,Veszprém,Közép-Dunántúl,3,1239
Kákics,45.9047197,17.8522967,Baranya,Dél-Dunántúl,5,1240
Kákás forgalmi kitérő,46.1967492,20.5221809,Békés,Dél-Alföld,2,1241
Kál-Kápolna,47.7341183,20.2547571,Heves,Észak-Magyarország,0,1242
Kál-Kápolnai Gabonaforgalmi Váll. iparvágány kiágazás,47.7571091,20.2359808,Heves,Észak-Magyarország,0,1243
Kállósemjén,47.8543948,21.93488,Szabolcs-Szatmár-Bereg,Észak-Alföld,1,1244
Kálvin János tér,46.4169061,20.3289389,Csongrád-Csanád,Dél-Alföld,2,1245
Kálvin tér,47.4895404,19.0619555,Budapest,Budapest,6,1246
Kálvin tér M,47.4892666,19.0612271,Budapest,Budapest,6,1247
Kálvária tér,46.2533492,20.1295164,Bács-Kiskun,Dél-Alföld,2,1248
Kámaházi erdészlak,46.5604687,16.7213841,Zala,Nyugat-Dunántúl,4,1249
Kámon,47.2543533,16.6258651,Győr-Moson-Sopron,Nyugat-Dunántúl,4,1250
Kányavár,46.5684967,16.6805773,Zala,Nyugat-Dunántúl,4,1251
Kápolna,47.7609699,20.2349948,Heves,Észak-Magyarország,0,1252
Kápolna utca,47.4822622,19.1304163,Budapest,Budapest,6,1253
Kápolnadűlő,46.735652,19.4601474,Bács-Kiskun,Dél-Alföld,2,1254
Kápolnásnyék,47.2456059,18.6930326,Fejér,Közép-Dunántúl,3,1255
"Káposztásmegyer, Megyeri út",47.5934652,19.1205369,Budapest,Budapest,6,1256
Káptalanfüred,47.0103666,18.0041436,Fejér,Közép-Dunántúl,3,1257
Károly utca,47.4232852,19.1170226,Budapest,Budapest,6,1258
Károlyi Mihály utca,47.5515678,21.6144276,Hajdú-Bihar,Észak-Alföld,1,1259
Kék,48.0932327,21.8839425,Szabolcs-Szatmár-Bereg,Észak-Alföld,1,1260
Kék Golyó utca,47.4978805,19.0211029,Budapest,Budapest,6,1261
Kémes,45.8293305,18.0968857,Baranya,Dél-Dunántúl,5,1262
Kén utca,47.4551979,19.0863335,Budapest,Budapest,6,1263
Kétegyháza,46.5325471,21.1721021,Békés,Dél-Alföld,2,1264
Kéthely,46.6454225,17.4115218,Veszprém,Közép-Dunántúl,3,1265
Kétpó,47.0769351,20.4876919,Jász-Nagykun-Szolnok,Észak-Alföld,1,1266
Kétpó forgalmi kitérő,47.0733503,20.4952552,Jász-Nagykun-Szolnok,Észak-Alföld,1,1267
Kétérköz,48.1711493,21.7854812,Szabolcs-Szatmár-Bereg,Észak-Alföld,1,1268
Kétújfalu,45.9700827,17.7203385,Baranya,Dél-Dunántúl,5,1269
Kétútköz,47.6944904,20.5641026,Heves,Észak-Magyarország,0,1270
Kóny,47.6328108,17.3595372,Veszprém,Közép-Dunántúl,3,1271
Kónya,47.600687,21.2376466,Hajdú-Bihar,Észak-Alföld,1,1272
Kónyaszék,46.6997988,20.0740736,Bács-Kiskun,Dél-Alföld,2,1273
Kópháza,47.6326347,16.6369876,Győr-Moson-Sopron,Nyugat-Dunántúl,4,1274
Kórógyszentgyörgy,46.5643671,20.2250029,Bács-Kiskun,Dél-Alföld,2,1275
Kótaj,48.0453984,21.7106517,Szabolcs-Szatmár-Bereg,Észak-Alföld,1,1276
Kótaj-szeszfőzde,48.0502494,21.7022181,Szabolcs-Szatmár-Bereg,Észak-Alföld,1,1277
Kótpuszta,46.9593438,21.3349806,Hajdú-Bihar,Észak-Alföld,1,1278
Kótpuszta-TIG ipvk.,46.9562897,21.3284278,Hajdú-Bihar,Észak-Alföld,1,1279
Kölcsey Központ (Hunyadi János utca),47.5347547,21.6231831,Hajdú-Bihar,Észak-Alföld,1,1280
Kölesd-Alsótengelic,46.5389367,18.6729613,Bács-Kiskun,Dél-Alföld,2,1281
Köncsögpuszta,46.7867313,19.5483188,Bács-Kiskun,Dél-Alföld,2,1282
Körmend,47.0160996,16.5972999,Vas,Nyugat-Dunántúl,4,1283
Környe,47.5428679,18.3335999,Komárom-Esztergom,Közép-Dunántúl,3,1284
Körösladány,46.9700102,21.0858917,Hajdú-Bihar,Észak-Alföld,1,1285
Körösnagyharsány,47.0129315,21.6416865,Hajdú-Bihar,Észak-Alföld,1,1286
Körösszakál,47.0081131,21.605986,Hajdú-Bihar,Észak-Alföld,1,1287
Körösújfalu,46.9675252,21.3956575,Hajdú-Bihar,Észak-Alföld,1,1288
Kötegyán,46.7585615,21.4795749,Békés,Dél-Alföld,2,1289
Kövecses,46.6057229,16.7983198,Zala,Nyugat-Dunántúl,4,1290
Kövecsesi elágazás,46.5525429,16.7680108,Zala,Nyugat-Dunántúl,4,1291
Közterületfenntartó Zrt.,47.4678308,19.107731,Budapest,Budapest,6,1292
Közvágóhíd,47.4662006,19.0773396,Budapest,Budapest,6,1293
Közvágóhíd H,47.4687841,19.0727767,Budapest,Budapest,6,1294
Közép-Garadna,48.1168329,20.5724303,Borsod-Abaúj-Zemplén,Észak-Magyarország,0,1295
Középmező,45.9958779,18.6690547,Bács-Kiskun,Dél-Alföld,2,1296
Középrigóc,45.9704948,17.5246915,Baranya,Dél-Dunántúl,5,1297
Kútvölgy,46.4594147,20.4520893,Csongrád-Csanád,Dél-Alföld,2,1298
Külsőhalas elágazás,46.4205431,19.4994866,Bács-Kiskun,Dél-Alföld,2,1299
Külsővat,47.2801632,17.2217599,Veszprém,Közép-Dunántúl,3,1300
Küngös,47.0704924,18.1686147,Fejér,Közép-Dunántúl,3,1301
Küngös-Gazdasági iparvágány kiágazás,47.0691949,18.1683602,Fejér,Közép-Dunántúl,3,1302
Kőbánya alsó,47.4818602,19.1279634,Budapest,Budapest,6,1303
Kőbánya alsó vasútállomás,47.4823541,19.1293918,Budapest,Budapest,6,1304
Kőbánya alsó vasútállomás (Kápolna utca),47.481851,19.1321456,Budapest,Budapest,6,1305
Kőbánya alsó vasútállomás (Mázsa tér),47.4817441,19.127024,Budapest,Budapest,6,1306
Kőbánya felső,47.4917627,19.1330048,Budapest,Budapest,6,1307
Kőbánya felső elágazás,47.488348,19.1159602,Budapest,Budapest,6,1308
Kőbánya felső vasútállomás,47.490896,19.1329772,Budapest,Budapest,6,1309
Kőbánya kiágazás,47.492557,19.1568536,Budapest,Budapest,6,1310
Kőbánya-Hizlaló,47.4776544,19.1224018,Budapest,Budapest,6,1311
Kőbánya-Kispest,47.4631448,19.1519994,Budapest,Budapest,6,1312
"Kőbánya-Kispest, kihúzóvágányok",47.4625752,19.1525944,Budapest,Budapest,6,1313
Kőbánya-Teher,47.4918761,19.1206497,Budapest,Budapest,6,1314
Kőbányai garázs,47.4907255,19.1143872,Budapest,Budapest,6,1315
Kőbányai út / Könyves Kálmán körút,47.4857759,19.1070467,Budapest,Budapest,6,1316
Kőbányai út 21.,47.4889761,19.0958462,Budapest,Budapest,6,1317
Kőbányai út 31.,47.4876151,19.1041229,Budapest,Budapest,6,1318
Kőkapu,48.4266103,21.4401934,Borsod-Abaúj-Zemplén,Észak-Magyarország,0,1319
Kőrózsa,48.0014075,18.8979621,Nógrád,Észak-Magyarország,0,1320
Kőszeg,47.3817353,16.5568922,Győr-Moson-Sopron,Nyugat-Dunántúl,4,1321
Kőszegfalva,47.3618359,16.5674327,Győr-Moson-Sopron,Nyugat-Dunántúl,4,1322
Kőérberek,47.4452638,19.0000343,Budapest,Budapest,6,1323
Lajosháza,47.8588982,19.9357455,Heves,Észak-Magyarország,0,1324
Lajosmizse,47.0283934,19.5423745,Pest,Pest,7,1325
Lajosmizse alsó,47.0227742,19.5500836,Pest,Pest,7,1326
Lajosmizsei sorompó,47.4505862,19.1612971,Budapest,Budapest,6,1327
Lakitelek,46.8729421,20.0036441,Jász-Nagykun-Szolnok,Észak-Alföld,1,1328
Lakitelek kiágazás,46.872793,20.027614,Jász-Nagykun-Szolnok,Észak-Alföld,1,1329
Lakitelek-Flaga Gáz iparvágány kiágazás,46.87321,20.0381653,Jász-Nagykun-Szolnok,Észak-Alföld,1,1330
Laky Adolf utca,47.5196648,19.0974029,Budapest,Budapest,6,1331
Lassi,46.236912,18.8573648,Bács-Kiskun,Dél-Alföld,2,1332
Lehel tér,47.5176595,19.0602118,Budapest,Budapest,6,1333
Lehel tér M,47.5172534,19.0609706,Budapest,Budapest,6,1334
Lehel utca,47.4595366,19.140305,Budapest,Budapest,6,1335
Lehel utca / Dózsa György út,47.5207952,19.0689962,Budapest,Budapest,6,1336
Lehel utca / Róbert Károly körút,47.5257963,19.0774973,Budapest,Budapest,6,1337
Lengyeltóti,46.6604178,17.6135298,Veszprém,Közép-Dunántúl,3,1338
Lengyeltóti forgalmi iroda,46.66071,17.61334,Veszprém,Közép-Dunántúl,3,1339
Lenti,46.6211745,16.5295307,Zala,Nyugat-Dunántúl,4,1340
Lenti ÁEV,46.6185379,16.5303845,Zala,Nyugat-Dunántúl,4,1341
Lenti-Gyöngyvirág utca,46.6192576,16.5410395,Zala,Nyugat-Dunántúl,4,1342
Lentiszombathely,46.6111247,16.5727135,Zala,Nyugat-Dunántúl,4,1343
Lentiszombathely-Mumor,46.6218178,16.5712143,Zala,Nyugat-Dunántúl,4,1344
Lepsény,46.9872626,18.2476562,Fejér,Közép-Dunántúl,3,1345
Lepsény-Gabonaforgalmi iparvágány kiágazás,46.996377,18.2533001,Fejér,Közép-Dunántúl,3,1346
Lesencetomaj,46.8757443,17.3787385,Veszprém,Közép-Dunántúl,3,1347
Levelek-Magy,47.9478776,21.9935662,Szabolcs-Szatmár-Bereg,Észak-Alföld,1,1348
Levél,47.8897503,17.1921162,Győr-Moson-Sopron,Nyugat-Dunántúl,4,1349
Leányka utcai lakótelep,47.4324987,19.0372574,Budapest,Budapest,6,1350
Leányvár,47.687759,18.7723816,Komárom-Esztergom,Közép-Dunántúl,3,1351
Ligettanya,47.9516017,22.0713142,Szabolcs-Szatmár-Bereg,Észak-Alföld,1,1352
Lillafüred,48.1036266,20.6227281,Borsod-Abaúj-Zemplén,Észak-Magyarország,0,1353
Liptó utca,47.4860148,19.0070253,Budapest,Budapest,6,1354
Litke,48.2156416,19.5984181,Nógrád,Észak-Magyarország,0,1355
Londoni körút,46.2519899,20.1379723,Bács-Kiskun,Dél-Alföld,2,1356
Lovasberény,47.3033442,18.559194,Fejér,Közép-Dunántúl,3,1357
Lovász váltó,47.9311811,18.8382662,Nógrád,Észak-Magyarország,0,1358
Ludas,47.7240063,20.0955978,Heves,Észak-Magyarország,0,1359
Ludastó,46.7960658,19.5751715,Bács-Kiskun,Dél-Alföld,2,1360
Ludányhalászi,48.1323067,19.5294641,Nógrád,Észak-Magyarország,0,1361
Lukafa,46.205732,17.9060075,Baranya,Dél-Dunántúl,5,1362
Lukafai elágazás,46.1975519,17.9002743,Baranya,Dél-Dunántúl,5,1363
Lukas Hoffmann,47.6134002,21.0730321,Hajdú-Bihar,Észak-Alföld,1,1364
Lukácsháza,47.3407992,16.5803545,Győr-Moson-Sopron,Nyugat-Dunántúl,4,1365
Lukácsháza alsó,47.3267303,16.5852682,Győr-Moson-Sopron,Nyugat-Dunántúl,4,1366
LÁEV,48.0999545,20.70268,Borsod-Abaúj-Zemplén,Észak-Magyarország,0,1367
Lábatlan,47.7521843,18.515134,Komárom-Esztergom,Közép-Dunántúl,3,1368
Ládi rakodó,48.0869069,20.7209758,Borsod-Abaúj-Zemplén,Észak-Magyarország,0,1369
Látókép,47.5577101,21.5244967,Hajdú-Bihar,Észak-Alföld,1,1370
Lázi,47.4698947,17.8354595,Komárom-Esztergom,Közép-Dunántúl,3,1371
Lébény-Mosonszentmiklós,47.7558863,17.4254383,Veszprém,Közép-Dunántúl,3,1372
Lébény-Mosonszentmiklós forgalmi iroda,47.7556984,17.4252508,Veszprém,Közép-Dunántúl,3,1373
Létavértes,47.3936814,21.8790153,Hajdú-Bihar,Észak-Alföld,1,1374
Lövő,47.509619,16.777372,Győr-Moson-Sopron,Nyugat-Dunántúl,4,1375
Lőkösháza,46.4323475,21.2378789,Békés,Dél-Alföld,2,1376
Lőrinci,47.7380184,19.6738956,Nógrád,Észak-Magyarország,0,1377
"M3 metró, Forgách utca",47.5393439,19.0693231,Budapest,Budapest,6,1378
M3-as metró (Arany János utca),47.503207,19.0545363,Budapest,Budapest,6,1379
M4 Rákóczi tér Lift bejárat/Elevator access,47.4928498,19.0725403,Budapest,Budapest,6,1380
Macs,47.5627917,21.5116831,Hajdú-Bihar,Észak-Alföld,1,1381
Madarász utca,47.4376895,19.1930511,Budapest,Budapest,6,1382
Magas-rakodó,47.9298486,18.8408253,Nógrád,Észak-Magyarország,0,1383
Magdolna utca,47.4919553,19.0880048,Budapest,Budapest,6,1384
Magdolnavölgy,47.6476814,18.8186908,Komárom-Esztergom,Közép-Dunántúl,3,1385
Maglód,47.4390574,19.3396039,Pest,Pest,7,1386
Maglódi nyaraló,47.4341197,19.3634471,Pest,Pest,7,1387
Magyar Aszfalt,47.4597211,19.087827,Budapest,Budapest,6,1388
Magyarbánhegyes,46.4508948,20.9692997,Békés,Dél-Alföld,2,1389
Magyarbóly,45.8348363,18.490763,Baranya,Dél-Dunántúl,5,1390
Magyarcsanád,46.1746012,20.6104134,Békés,Dél-Alföld,2,1391
Magyarhertelend,46.1930757,18.1566259,Baranya,Dél-Dunántúl,5,1392
Magyarkeresztúr-Zsebeháza,47.5142861,17.1762607,Veszprém,Közép-Dunántúl,3,1393
Magyarkút,47.8489407,19.0467475,Nógrád,Észak-Magyarország,0,1394
Magyarkút-Verőce,47.8311762,19.0402018,Nógrád,Észak-Magyarország,0,1395
Magyarnándor,47.9706803,19.3568871,Nógrád,Észak-Magyarország,0,1396
Magyarsor,46.8314347,19.6136211,Bács-Kiskun,Dél-Alföld,2,1397
Magyarszerdahely,46.5493797,16.9808962,Zala,Nyugat-Dunántúl,4,1398
Magyarszék,46.2102032,18.186146,Baranya,Dél-Dunántúl,5,1399
Mahóca,48.1440894,20.5920005,Borsod-Abaúj-Zemplén,Észak-Magyarország,0,1400
Majláth,48.1100081,20.6724528,Borsod-Abaúj-Zemplén,Észak-Magyarország,0,1401
Maklár,47.8079504,20.4047562,Borsod-Abaúj-Zemplén,Észak-Magyarország,0,1402
Makó,46.2044934,20.4747133,Csongrád-Csanád,Dél-Alföld,2,1403
Makó elágazás,46.2030675,20.505958,Békés,Dél-Alföld,2,1404
Makó-Újváros,46.2312186,20.496223,Csongrád-Csanád,Dél-Alföld,2,1405
Makó-Újvásártér,46.21627,20.512389,Békés,Dél-Alföld,2,1406
Malomkert,47.832187,18.8554344,Nógrád,Észak-Magyarország,0,1407
Malomszög utca,48.1044322,20.7702329,Borsod-Abaúj-Zemplén,Észak-Magyarország,0,1408
Malomtelelő,46.248606,18.8569573,Bács-Kiskun,Dél-Alföld,2,1409
Malomvölgy,47.8565798,18.853597100000002,Nógrád,Észak-Magyarország,0,1410
Marcali,46.5804608,17.421483,Baranya,Dél-Dunántúl,5,1411
Marcaltő,47.4277338,17.3488768,Veszprém,Közép-Dunántúl,3,1412
Margit híd felszín,47.5184966,19.0388845,Budapest,Budapest,6,1413
Margit híd forgalmi kitérő,47.520978,19.0383597,Budapest,Budapest,6,1414
"Margit híd, budai hídfő",47.5159882,19.0394748,Budapest,Budapest,6,1415
"Margit híd, budai hídfő H",47.5146274,19.0381725,Budapest,Budapest,6,1416
Margitsziget / Margit híd,47.5144381,19.0442361,Budapest,Budapest,6,1417
Margó Tivadar utca,47.4478983,19.1675596,Budapest,Budapest,6,1418
Maroshegy,47.1589506,18.4064757,Fejér,Közép-Dunántúl,3,1419
Martfű,47.0208271,20.2919739,Jász-Nagykun-Szolnok,Észak-Alföld,1,1420
Martinka,47.5507266,21.7601477,Hajdú-Bihar,Észak-Alföld,1,1421
Martonvásár,47.3205132,18.7810474,Fejér,Közép-Dunántúl,3,1422
Mechwart liget,47.5108095,19.031497,Budapest,Budapest,6,1423
Mecsekalja-Cserkút,46.0602028,18.1519349,Baranya,Dél-Dunántúl,5,1424
Mecsekjánosi,46.216385,18.2420186,Baranya,Dél-Dunántúl,5,1425
Mecsekpölöske,46.2242506,18.2135539,Baranya,Dél-Dunántúl,5,1426
Medgyesegyháza,46.4959269,21.0302644,Békés,Dél-Alföld,2,1427
Medgyessy sétány,47.5492525,21.6281497,Hajdú-Bihar,Észak-Alföld,1,1428
Meggyespele,47.4412707,19.9393955,Heves,Észak-Magyarország,0,1429
Mende,47.4276893,19.44206,Pest,Pest,7,1430
Mereta,46.5430483,16.7501749,Zala,Nyugat-Dunántúl,4,1431
Mereta rakodó,46.5412377,16.7507559,Zala,Nyugat-Dunántúl,4,1432
Mernye,46.5095604,17.8321244,Baranya,Dél-Dunántúl,5,1433
Mester utca / Ferenc körút,47.4827479,19.0687814,Budapest,Budapest,6,1434
Mester utca / Könyves Kálmán körút,47.4698435,19.0829656,Budapest,Budapest,6,1435
Mesztegnyő,46.5075242,17.4329404,Baranya,Dél-Dunántúl,5,1436
Mesztegnyő EV,46.5074977,17.433568,Baranya,Dél-Dunántúl,5,1437
Metrólejáró - M1 metró,47.4967044,19.0506849,Budapest,Budapest,6,1438
Metrólejáró - M1 metró kijárat,47.4969013,19.0504748,Budapest,Budapest,6,1439
Metrólejáró - M2 metró,47.4974623,19.0539554,Budapest,Budapest,6,1440
Metrólejáró - M3 metró,47.4975258,19.0542729,Budapest,Budapest,6,1441
Mexikói út,47.5195924,19.0905234,Budapest,Budapest,6,1442
Mexikói út M,47.5190309,19.0913095,Budapest,Budapest,6,1443
"Mexikói út, kihúzóvágányok",47.5196533,19.0918346,Budapest,Budapest,6,1444
Mezőberény,46.8147898,21.0130131,Békés,Dél-Alföld,2,1445
Mezőcsát,47.824605,20.9157192,Borsod-Abaúj-Zemplén,Észak-Magyarország,0,1446
Mezőfalva,46.9053893,18.8104559,Bács-Kiskun,Dél-Alföld,2,1447
Mezőfalva elágazás,46.8904028,18.7990417,Bács-Kiskun,Dél-Alföld,2,1448
Mezőhegyes,46.3107582,20.8161557,Békés,Dél-Alföld,2,1449
Mezőkeresztes-Mezőnyárád,47.8451628,20.6696433,Borsod-Abaúj-Zemplén,Észak-Magyarország,0,1450
Mezőkovácsháza,46.4079814,20.8998869,Békés,Dél-Alföld,2,1451
Mezőkovácsháza felső,46.41581,20.9192604,Békés,Dél-Alföld,2,1452
Mezőkövesd,47.7973624,20.5679076,Heves,Észak-Magyarország,0,1453
Mezőkövesd felső,47.8068543,20.5907808,Borsod-Abaúj-Zemplén,Észak-Magyarország,0,1454
Mezőlak,47.3236592,17.3644142,Veszprém,Közép-Dunántúl,3,1455
Mezőpeterd,47.176076,21.6259309,Hajdú-Bihar,Észak-Alföld,1,1456
Mezőtárkány,47.7250071,20.4805476,Heves,Észak-Magyarország,0,1457
Mezőtúr,47.0135542,20.6192168,Hajdú-Bihar,Észak-Alföld,1,1458
Mezőzombor,48.1569679,21.267511,Borsod-Abaúj-Zemplén,Észak-Magyarország,0,1459
Mihályháza,47.3185792,17.3291902,Veszprém,Közép-Dunántúl,3,1460
Mikepércs,47.4360671,21.6200479,Hajdú-Bihar,Észak-Alföld,1,1461
Miklóstelep,46.9134093,19.6309078,Bács-Kiskun,Dél-Alföld,2,1462
Mikó utca,47.4983512,19.028963,Budapest,Budapest,6,1463
Millenniumtelep,47.3799744,19.1050901,Budapest,Budapest,6,1464
Millér,47.179976,20.239222,Jász-Nagykun-Szolnok,Észak-Alföld,1,1465
Mindszent,46.5240268,20.194005,Bács-Kiskun,Dél-Alföld,2,1466
"Miskolc, Dorottya utca",48.1007284,20.7024549,Borsod-Abaúj-Zemplén,Észak-Magyarország,0,1467
Miskolc-Egyetemváros ipvk.,48.0771691,20.7746765,Borsod-Abaúj-Zemplén,Észak-Magyarország,0,1468
Miskolc-Gömöri,48.106505,20.8004302,Borsod-Abaúj-Zemplén,Észak-Magyarország,0,1469
Miskolc-Rendező,48.0930119,20.8006091,Borsod-Abaúj-Zemplén,Észak-Magyarország,0,1470
Miskolc-Repülőtér,48.1338995,20.7888976,Borsod-Abaúj-Zemplén,Észak-Magyarország,0,1471
Miskolc-Tiszai,48.0987059,20.8109398,Borsod-Abaúj-Zemplén,Észak-Magyarország,0,1472
Miskolci utca,47.5325481,19.1106851,Budapest,Budapest,6,1473
Mogyoród,47.5967818,19.2717468,Budapest,Budapest,6,1474
Moha,47.2471009,18.3393194,Fejér,Közép-Dunántúl,3,1475
Moha-Rakodó,47.274161,18.3063895,Fejér,Közép-Dunántúl,3,1476
Mohora,47.9969476,19.3462685,Nógrád,Észak-Magyarország,0,1477
Mohács,46.0024703,18.6843799,Bács-Kiskun,Dél-Alföld,2,1478
Molvány,46.0352456,17.7484216,Baranya,Dél-Dunántúl,5,1479
Monor,47.3454329,19.4368521,Pest,Pest,7,1480
Monorierdő,47.3092421,19.4988715,Pest,Pest,7,1481
Monostorpályi,47.3905404,21.7746574,Hajdú-Bihar,Észak-Alföld,1,1482
Morgó,47.83819,19.0068577,Nógrád,Észak-Magyarország,0,1483
Mosonmagyaróvár,47.8494255,17.2675925,Győr-Moson-Sopron,Nyugat-Dunántúl,4,1484
Mosonmagyaróvár forgalmi iroda,47.8506458,17.2663974,Győr-Moson-Sopron,Nyugat-Dunántúl,4,1485
Mosonszolnok,47.8527157,17.1605963,Győr-Moson-Sopron,Nyugat-Dunántúl,4,1486
Murakeresztúr,46.3638317,16.8766647,Zala,Nyugat-Dunántúl,4,1487
Murony,46.7569862,21.0381363,Békés,Dél-Alföld,2,1488
MÁV kiágazás,47.4487323,19.0714737,Budapest,Budapest,6,1489
